[{"speciesCode":"chacha1","comName":"Chaco Chachalaca","sciName":"Ortalis canicollis","locId":"L19519823","locName":"José Romanutti, Córdoba, AR (-31,034, -64,105)","obsDt":"2022-06-07 18:05","howMany":5,"lat":-31.0338078,"lng":-64.1045457,"obsValid":true,"obsReviewed":false,"locationPrivate":true,"subId":"S112401231"},{"speciesCode":"gobsal1","comName":"Golden-billed Saltator","sciName":"Saltator aurantiirostris","locId":"L19519823","locName":"José Romanutti, Córdoba, AR (-31,034, -64,105)","obsDt":"2022-06-07 18:05","howMany":1,"lat":-31.0338078,"lng":-64.1045457,"obsValid":true,"obsReviewed":false,"locationPrivate":true,"subId":"S112401231"},{"speciesCode":"austhr1","comName":"Austral Thrush","sciName":"Turdus falcklandii","locId":"L18587923","locName":"Plaza Sarmiento","obsDt":"2022-06-07 18:02","howMany":2,"lat":-40.1553476,"lng":-71.3479986,"obsValid":true,"obsReviewed":false,"locationPrivate":true,"subId":"S112401669"},{"speciesCode":"ausbla1","comName":"Austral Blackbird","sciName":"Curaeus curaeus","locId":"L18587923","locName":"Plaza Sarmiento","obsDt":"2022-06-07 18:02","howMany":40,"lat":-40.1553476,"lng":-71.3479986,"obsValid":true,"obsReviewed":false,"locationPrivate":true,"subId":"S112401669"},{"speciesCode":"blcsis2","comName":"Black-chinned Siskin","sciName":"Spinus barbatus","locId":"L18587923","locName":"Plaza Sarmiento","obsDt":"2022-06-07 18:02","howMany":4,"lat":-40.1553476,"lng":-71.3479986,"obsValid":true,"obsReviewed":false,"locationPrivate":true,"subId":"S112401669"},{"speciesCode":"chicar1","comName":"Chimango Caracara","sciName":"Milvago chimango","locId":"L18587923","locName":"Plaza Sarmiento","obsDt":"2022-06-07 18:02","howMany":3,"lat":-40.1553476,"lng":-71.3479986,"obsValid":true,"obsReviewed":false,"locationPrivate":true,"subId":"S112401669"},{"speciesCode":"auspar1","comName":"Austral Parakeet","sciName":"Enicognathus ferrugineus","locId":"L18587923","locName":"Plaza Sarmiento","obsDt":"2022-06-07 18:02","howMany":5,"lat":-40.1553476,"lng":-71.3479986,"obsValid":true,"obsReviewed":false,"locationPrivate":true,"subId":"S112401669"},{"speciesCode":"grbfir1","comName":"Green-backed Firecrown","sciName":"Sephanoides sephaniodes","locId":"L19519849","locName":"610 Misionero Mascardi, San Martin de los Andes, Neuquén, AR (-40,153, -71,347)","obsDt":"2022-06-07 17:55","howMany":1,"lat":-40.1532489,"lng":-71.3467303,"obsValid":true,"obsReviewed":false,"locationPrivate":true,"subId":"S112401375"},{"speciesCode":"houspa","comName":"House Sparrow","sciName":"Passer domesticus","locId":"L19519849","locName":"610 Misionero Mascardi, San Martin de los Andes, Neuquén, AR (-40,153, -71,347)","obsDt":"2022-06-07 17:55","howMany":1,"lat":-40.1532489,"lng":-71.3467303,"obsValid":true,"obsReviewed":false,"locationPrivate":true,"subId":"S112401375"},{"speciesCode":"hrshaw","comName":"Harris's Hawk","sciName":"Parabuteo unicinctus","locId":"L19519715","locName":"595 Eduardo Elordi, San Martin de los Andes, Neuquén, AR (-40,154, -71,35)","obsDt":"2022-06-07 17:48","howMany":1,"lat":-40.154019,"lng":-71.3496341,"obsValid":true,"obsReviewed":false,"locationPrivate":true,"subId":"S112400773"},{"speciesCode":"grekis","comName":"Great Kiskadee","sciName":"Pitangus sulphuratus","locId":"L13826515","locName":"Villa del Rosario - Casa","obsDt":"2022-06-07 17:40","howMany":3,"lat":-31.5575432,"lng":-63.5392088,"obsValid":true,"obsReviewed":false,"locationPrivate":true,"subId":"S112401165"},{"speciesCode":"brncac1","comName":"Brown Cacholote","sciName":"Pseudoseisura lophotes","locId":"L13826515","locName":"Villa del Rosario - Casa","obsDt":"2022-06-07 17:40","howMany":2,"lat":-31.5575432,"lng":-63.5392088,"obsValid":true,"obsReviewed":false,"locationPrivate":true,"subId":"S112401165"},{"speciesCode":"crbthr1","comName":"Creamy-bellied Thrush","sciName":"Turdus amaurochalinus","locId":"L13826515","locName":"Villa del Rosario - Casa","obsDt":"2022-06-07 17:40","howMany":2,"lat":-31.5575432,"lng":-63.5392088,"obsValid":true,"obsReviewed":false,"locationPrivate":true,"subId":"S112401165"},{"speciesCode":"spwpig3","comName":"Spot-winged Pigeon","sciName":"Patagioenas maculosa","locId":"L13826515","locName":"Villa del Rosario - Casa","obsDt":"2022-06-07 17:40","howMany":2,"lat":-31.5575432,"lng":-63.5392088,"obsValid":true,"obsReviewed":false,"locationPrivate":true,"subId":"S112401165"},{"speciesCode":"eardov1","comName":"Eared Dove","sciName":"Zenaida auriculata","locId":"L13826515","locName":"Villa del Rosario - Casa","obsDt":"2022-06-07 17:40","howMany":3,"lat":-31.5575432,"lng":-63.5392088,"obsValid":true,"obsReviewed":false,"locationPrivate":true,"subId":"S112401165"},{"speciesCode":"houwre","comName":"House Wren","sciName":"Troglodytes aedon","locId":"L13826515","locName":"Villa del Rosario - Casa","obsDt":"2022-06-07 17:40","howMany":1,"lat":-31.5575432,"lng":-63.5392088,"obsValid":true,"obsReviewed":false,"locationPrivate":true,"subId":"S112401165"},{"speciesCode":"rufhor2","comName":"Rufous Hornero","sciName":"Furnarius rufus","locId":"L13826515","locName":"Villa del Rosario - Casa","obsDt":"2022-06-07 17:40","howMany":2,"lat":-31.5575432,"lng":-63.5392088,"obsValid":true,"obsReviewed":false,"locationPrivate":true,"subId":"S112401165"},{"speciesCode":"neocor","comName":"Neotropic Cormorant","sciName":"Nannopterum brasilianum","locId":"L4553694","locName":"Ushuaia (AICA TF03)--Barco Hundido","obsDt":"2022-06-07 17:35","howMany":5,"lat":-54.8093049,"lng":-68.3083212,"obsValid":true,"obsReviewed":false,"locationPrivate":false,"subId":"S112400639"},{"speciesCode":"puteup1","comName":"Purple-throated Euphonia","sciName":"Euphonia chlorotica","locId":"L11238291","locName":"Buen Pastor, AR (-24,784, -65,431)","obsDt":"2022-06-07 17:24","howMany":2,"lat":-24.7839256,"lng":-65.4312864,"obsValid":true,"obsReviewed":false,"locationPrivate":true,"subId":"S112400572"},{"speciesCode":"picpig2","comName":"Picazuro Pigeon","sciName":"Patagioenas picazuro","locId":"L11238291","locName":"Buen Pastor, AR (-24,784, -65,431)","obsDt":"2022-06-07 17:24","howMany":24,"lat":-24.7839256,"lng":-65.4312864,"obsValid":true,"obsReviewed":false,"locationPrivate":true,"subId":"S112400572"},{"speciesCode":"whfibi","comName":"White-faced Ibis","sciName":"Plegadis chihi","locId":"L11238291","locName":"Buen Pastor, AR (-24,784, -65,431)","obsDt":"2022-06-07 17:24","howMany":45,"lat":-24.7839256,"lng":-65.4312864,"obsValid":true,"obsReviewed":false,"locationPrivate":true,"subId":"S112400572"},{"speciesCode":"saytan1","comName":"Sayaca Tanager","sciName":"Thraupis sayaca","locId":"L11238291","locName":"Buen Pastor, AR (-24,784, -65,431)","obsDt":"2022-06-07 17:24","howMany":2,"lat":-24.7839256,"lng":-65.4312864,"obsValid":true,"obsReviewed":false,"locationPrivate":true,"subId":"S112400572"},{"speciesCode":"rocpig","comName":"Rock Pigeon","sciName":"Columba livia","locId":"L11238291","locName":"Buen Pastor, AR (-24,784, -65,431)","obsDt":"2022-06-07 17:24","howMany":3,"lat":-24.7839256,"lng":-65.4312864,"obsValid":true,"obsReviewed":false,"locationPrivate":true,"subId":"S112400572"},{"speciesCode":"y00678","comName":"Crested Caracara","sciName":"Caracara plancus","locId":"L11238291","locName":"Buen Pastor, AR (-24,784, -65,431)","obsDt":"2022-06-07 17:24","howMany":3,"lat":-24.7839256,"lng":-65.4312864,"obsValid":true,"obsReviewed":false,"locationPrivate":true,"subId":"S112400572"},{"speciesCode":"roahaw","comName":"Roadside Hawk","sciName":"Rupornis magnirostris","locId":"L11238291","locName":"Buen Pastor, AR (-24,784, -65,431)","obsDt":"2022-06-07 17:24","howMany":1,"lat":-24.7839256,"lng":-65.4312864,"obsValid":true,"obsReviewed":false,"locationPrivate":true,"subId":"S112400572"},{"speciesCode":"glbeme1","comName":"Glittering-bellied Emerald","sciName":"Chlorostilbon lucidus","locId":"L11238291","locName":"Buen Pastor, AR (-24,784, -65,431)","obsDt":"2022-06-07 17:24","howMany":1,"lat":-24.7839256,"lng":-65.4312864,"obsValid":true,"obsReviewed":false,"locationPrivate":true,"subId":"S112400572"},{"speciesCode":"baytan3","comName":"Blue-and-yellow Tanager","sciName":"Rauenia bonariensis","locId":"L11238291","locName":"Buen Pastor, AR (-24,784, -65,431)","obsDt":"2022-06-07 17:24","howMany":1,"lat":-24.7839256,"lng":-65.4312864,"obsValid":true,"obsReviewed":false,"locationPrivate":true,"subId":"S112400572"},{"speciesCode":"lowhar1","comName":"Long-winged Harrier","sciName":"Circus buffoni","locId":"L19519130","locName":"Vía sin nombre, Córdoba, AR (-33.574, -62.435)","obsDt":"2022-06-07 17:20","howMany":1,"lat":-33.5738419,"lng":-62.4353642,"obsValid":true,"obsReviewed":false,"locationPrivate":true,"subId":"S112398246"},{"speciesCode":"gregre1","comName":"Great Grebe","sciName":"Podiceps major","locId":"L10049447","locName":"Bariloche (AICA RN04)--Puerto San Carlos","obsDt":"2022-06-07 17:20","howMany":2,"lat":-41.1318798,"lng":-71.3113262,"obsValid":true,"obsReviewed":false,"locationPrivate":false,"subId":"S112400119"},{"speciesCode":"bkfibi1","comName":"Black-faced Ibis","sciName":"Theristicus melanopis","locId":"L10049447","locName":"Bariloche (AICA RN04)--Puerto San Carlos","obsDt":"2022-06-07 17:20","howMany":2,"lat":-41.1318798,"lng":-71.3113262,"obsValid":true,"obsReviewed":false,"locationPrivate":false,"subId":"S112400119"},{"speciesCode":"chbmoc1","comName":"Chalk-browed Mockingbird","sciName":"Mimus saturninus","locId":"L17069657","locName":"Seleccionado automáticamente","obsDt":"2022-06-07 16:54","howMany":7,"lat":-33.2176742,"lng":-66.2263467,"obsValid":true,"obsReviewed":false,"locationPrivate":true,"subId":"S112399940"},{"speciesCode":"monpar","comName":"Monk Parakeet","sciName":"Myiopsitta monachus","locId":"L17069657","locName":"Seleccionado automáticamente","obsDt":"2022-06-07 16:54","howMany":14,"lat":-33.2176742,"lng":-66.2263467,"obsValid":true,"obsReviewed":false,"locationPrivate":true,"subId":"S112399940"},{"speciesCode":"chithr1","comName":"Chiguanco Thrush","sciName":"Turdus chiguanco","locId":"L17069657","locName":"Seleccionado automáticamente","obsDt":"2022-06-07 16:54","howMany":2,"lat":-33.2176742,"lng":-66.2263467,"obsValid":true,"obsReviewed":false,"locationPrivate":true,"subId":"S112399940"},{"speciesCode":"saffin","comName":"Saffron Finch","sciName":"Sicalis flaveola","locId":"L17069657","locName":"Seleccionado automáticamente","obsDt":"2022-06-07 16:54","howMany":3,"lat":-33.2176742,"lng":-66.2263467,"obsValid":true,"obsReviewed":false,"locationPrivate":true,"subId":"S112399940"},{"speciesCode":"rubthr1","comName":"Rufous-bellied Thrush","sciName":"Turdus rufiventris","locId":"L17069657","locName":"Seleccionado automáticamente","obsDt":"2022-06-07 16:54","howMany":1,"lat":-33.2176742,"lng":-66.2263467,"obsValid":true,"obsReviewed":false,"locationPrivate":true,"subId":"S112399940"},{"speciesCode":"blkvul","comName":"Black Vulture","sciName":"Coragyps atratus","locId":"L19166416","locName":"Ruta Provincial 5, Corrientes, Corrientes, AR (-27.494, -58.741)","obsDt":"2022-06-07 16:48","howMany":5,"lat":-27.493837,"lng":-58.7408332,"obsValid":true,"obsReviewed":false,"locationPrivate":true,"subId":"S112396386"},{"speciesCode":"yehcar1","comName":"Yellow-headed Caracara","sciName":"Milvago chimachima","locId":"L19166416","locName":"Ruta Provincial 5, Corrientes, Corrientes, AR (-27.494, -58.741)","obsDt":"2022-06-07 16:48","howMany":1,"lat":-27.493837,"lng":-58.7408332,"obsValid":true,"obsReviewed":false,"locationPrivate":true,"subId":"S112396386"},{"speciesCode":"grbhaw1","comName":"Great Black Hawk","sciName":"Buteogallus urubitinga","locId":"L19166416","locName":"Ruta Provincial 5, Corrientes, Corrientes, AR (-27.494, -58.741)","obsDt":"2022-06-07 16:48","howMany":1,"lat":-27.493837,"lng":-58.7408332,"obsValid":true,"obsReviewed":false,"locationPrivate":true,"subId":"S112396386"},{"speciesCode":"blchaw1","comName":"Black-collared Hawk","sciName":"Busarellus nigricollis","locId":"L19166416","locName":"Ruta Provincial 5, Corrientes, Corrientes, AR (-27.494, -58.741)","obsDt":"2022-06-07 16:48","howMany":1,"lat":-27.493837,"lng":-58.7408332,"obsValid":true,"obsReviewed":false,"locationPrivate":true,"subId":"S112396386"},{"speciesCode":"whttre2","comName":"White-throated Treerunner","sciName":"Pygarrhichas albogularis","locId":"L15653405","locName":"Monitoreo 1 - Playa Lacar y Arroyo Pocahullo","obsDt":"2022-06-07 16:27","howMany":2,"lat":-40.1603057,"lng":-71.3617966,"obsValid":true,"obsReviewed":false,"locationPrivate":true,"subId":"S112400233"},{"speciesCode":"yebpin1","comName":"Yellow-billed Pintail","sciName":"Anas georgica","locId":"L15653405","locName":"Monitoreo 1 - Playa Lacar y Arroyo Pocahullo","obsDt":"2022-06-07 16:27","howMany":6,"lat":-40.1603057,"lng":-71.3617966,"obsValid":true,"obsReviewed":false,"locationPrivate":true,"subId":"S112400233"},{"speciesCode":"rubmin1","comName":"Rufous-banded Miner","sciName":"Geositta rufipennis","locId":"L15653405","locName":"Monitoreo 1 - Playa Lacar y Arroyo Pocahullo","obsDt":"2022-06-07 16:27","howMany":7,"lat":-40.1603057,"lng":-71.3617966,"obsValid":true,"obsReviewed":false,"locationPrivate":true,"subId":"S112400233"},{"speciesCode":"bcnher","comName":"Black-crowned Night-Heron","sciName":"Nycticorax nycticorax","locId":"L15653405","locName":"Monitoreo 1 - Playa Lacar y Arroyo Pocahullo","obsDt":"2022-06-07 16:27","howMany":1,"lat":-40.1603057,"lng":-71.3617966,"obsValid":true,"obsReviewed":false,"locationPrivate":true,"subId":"S112400233"},{"speciesCode":"perfal","comName":"Peregrine Falcon","sciName":"Falco peregrinus","locId":"L15653405","locName":"Monitoreo 1 - Playa Lacar y Arroyo Pocahullo","obsDt":"2022-06-07 16:27","howMany":1,"lat":-40.1603057,"lng":-71.3617966,"obsValid":true,"obsReviewed":false,"locationPrivate":true,"subId":"S112400233"},{"speciesCode":"buwcin1","comName":"Buff-winged Cinclodes","sciName":"Cinclodes fuscus","locId":"L15653405","locName":"Monitoreo 1 - Playa Lacar y Arroyo Pocahullo","obsDt":"2022-06-07 16:27","howMany":1,"lat":-40.1603057,"lng":-71.3617966,"obsValid":true,"obsReviewed":false,"locationPrivate":true,"subId":"S112400233"},{"speciesCode":"fiediu1","comName":"Fire-eyed Diucon","sciName":"Pyrope pyrope","locId":"L15653405","locName":"Monitoreo 1 - Playa Lacar y Arroyo Pocahullo","obsDt":"2022-06-07 16:27","howMany":4,"lat":-40.1603057,"lng":-71.3617966,"obsValid":true,"obsReviewed":false,"locationPrivate":true,"subId":"S112400233"},{"speciesCode":"regcoo1","comName":"Red-gartered Coot","sciName":"Fulica armillata","locId":"L15653405","locName":"Monitoreo 1 - Playa Lacar y Arroyo Pocahullo","obsDt":"2022-06-07 16:27","howMany":10,"lat":-40.1603057,"lng":-71.3617966,"obsValid":true,"obsReviewed":false,"locationPrivate":true,"subId":"S112400233"},{"speciesCode":"rinkin1","comName":"Ringed Kingfisher","sciName":"Megaceryle torquata","locId":"L15653405","locName":"Monitoreo 1 - Playa Lacar y Arroyo Pocahullo","obsDt":"2022-06-07 16:27","howMany":1,"lat":-40.1603057,"lng":-71.3617966,"obsValid":true,"obsReviewed":false,"locationPrivate":true,"subId":"S112400233"},{"speciesCode":"soulap1","comName":"Southern Lapwing","sciName":"Vanellus chilensis","locId":"L15653405","locName":"Monitoreo 1 - Playa Lacar y Arroyo Pocahullo","obsDt":"2022-06-07 16:27","howMany":14,"lat":-40.1603057,"lng":-71.3617966,"obsValid":true,"obsReviewed":false,"locationPrivate":true,"subId":"S112400233"},{"speciesCode":"kelgul","comName":"Kelp Gull","sciName":"Larus dominicanus","locId":"L15653405","locName":"Monitoreo 1 - Playa Lacar y Arroyo Pocahullo","obsDt":"2022-06-07 16:27","howMany":2,"lat":-40.1603057,"lng":-71.3617966,"obsValid":true,"obsReviewed":false,"locationPrivate":true,"subId":"S112400233"},{"speciesCode":"yebtea1","comName":"Yellow-billed Teal","sciName":"Anas flavirostris","locId":"L15653405","locName":"Monitoreo 1 - Playa Lacar y Arroyo Pocahullo","obsDt":"2022-06-07 16:27","howMany":24,"lat":-40.1603057,"lng":-71.3617966,"obsValid":true,"obsReviewed":false,"locationPrivate":true,"subId":"S112400233"},{"speciesCode":"dabcin1","comName":"Dark-bellied Cinclodes","sciName":"Cinclodes patagonicus","locId":"L15653405","locName":"Monitoreo 1 - Playa Lacar y Arroyo Pocahullo","obsDt":"2022-06-07 16:27","howMany":3,"lat":-40.1603057,"lng":-71.3617966,"obsValid":true,"obsReviewed":false,"locationPrivate":true,"subId":"S112400233"},{"speciesCode":"whbmoc1","comName":"White-banded Mockingbird","sciName":"Mimus triurus","locId":"L12550603","locName":"Lilas de Horizonte","obsDt":"2022-06-07 16:22","howMany":4,"lat":-31.4480063,"lng":-64.1343313,"obsValid":true,"obsReviewed":false,"locationPrivate":true,"subId":"S112396928"},{"speciesCode":"cattyr","comName":"Cattle Tyrant","sciName":"Machetornis rixosa","locId":"L12550603","locName":"Lilas de Horizonte","obsDt":"2022-06-07 16:22","howMany":2,"lat":-31.4480063,"lng":-64.1343313,"obsValid":true,"obsReviewed":false,"locationPrivate":true,"subId":"S112396928"},{"speciesCode":"gybsht1","comName":"Gray-bellied Shrike-Tyrant","sciName":"Agriornis micropterus","locId":"L16872319","locName":"Vía sin nombre, Córdoba, AR (-31,168, -64,497)","obsDt":"2022-06-07 15:49","howMany":1,"lat":-31.1679371,"lng":-64.4973575,"obsValid":true,"obsReviewed":false,"locationPrivate":true,"subId":"S112392340"},{"speciesCode":"masgna1","comName":"Masked Gnatcatcher","sciName":"Polioptila dumicola","locId":"L19518356","locName":"858 Estanislao López, San Jose de la Esquina, Santa Fe, AR (-33.116, -61.703)","obsDt":"2022-06-07 15:44","howMany":2,"lat":-33.1158408,"lng":-61.7030833,"obsValid":true,"obsReviewed":false,"locationPrivate":true,"subId":"S112394971"},{"speciesCode":"guicuc1","comName":"Guira Cuckoo","sciName":"Guira guira","locId":"L19518356","locName":"858 Estanislao López, San Jose de la Esquina, Santa Fe, AR (-33.116, -61.703)","obsDt":"2022-06-07 15:44","howMany":3,"lat":-33.1158408,"lng":-61.7030833,"obsValid":true,"obsReviewed":false,"locationPrivate":true,"subId":"S112394971"},{"speciesCode":"hoosis1","comName":"Hooded Siskin","sciName":"Spinus magellanicus","locId":"L19518356","locName":"858 Estanislao López, San Jose de la Esquina, Santa Fe, AR (-33.116, -61.703)","obsDt":"2022-06-07 15:44","howMany":10,"lat":-33.1158408,"lng":-61.7030833,"obsValid":true,"obsReviewed":false,"locationPrivate":true,"subId":"S112394971"},{"speciesCode":"rucspa1","comName":"Rufous-collared Sparrow","sciName":"Zonotrichia capensis","locId":"L19518356","locName":"858 Estanislao López, San Jose de la Esquina, Santa Fe, AR (-33.116, -61.703)","obsDt":"2022-06-07 15:44","howMany":3,"lat":-33.1158408,"lng":-61.7030833,"obsValid":true,"obsReviewed":false,"locationPrivate":true,"subId":"S112394971"},{"speciesCode":"gcrwar","comName":"Golden-crowned Warbler","sciName":"Basileuterus culicivorus","locId":"L4779635","locName":"Reserva Natural Municipal Santa Catalina","obsDt":"2022-06-07 15:33","howMany":1,"lat":-34.7804692,"lng":-58.4371008,"obsValid":true,"obsReviewed":false,"locationPrivate":false,"subId":"S112399499"},{"speciesCode":"bawnig1","comName":"Band-winged Nightjar","sciName":"Systellura longirostris","locId":"L4779635","locName":"Reserva Natural Municipal Santa Catalina","obsDt":"2022-06-07 15:33","howMany":1,"lat":-34.7804692,"lng":-58.4371008,"obsValid":true,"obsReviewed":false,"locationPrivate":false,"subId":"S112399499"},{"speciesCode":"bltsta2","comName":"Blue-tufted Starthroat","sciName":"Heliomaster furcifer","locId":"L496649","locName":"Jardín de Picaflores (AICA MI01)","obsDt":"2022-06-07 15:20","howMany":1,"lat":-25.6004,"lng":-54.56865,"obsValid":true,"obsReviewed":false,"locationPrivate":false,"subId":"S112395638"},{"speciesCode":"gretho2","comName":"Greater Thornbird","sciName":"Phacellodomus ruber","locId":"L2633542","locName":"Parque Escolar Rural Enrique Berduc","obsDt":"2022-06-07 14:59","howMany":2,"lat":-31.7233277,"lng":-60.3272377,"obsValid":true,"obsReviewed":false,"locationPrivate":false,"subId":"S112399965"},{"speciesCode":"bawcow4","comName":"Grayish Baywing","sciName":"Agelaioides badius","locId":"L2633542","locName":"Parque Escolar Rural Enrique Berduc","obsDt":"2022-06-07 14:59","howMany":6,"lat":-31.7233277,"lng":-60.3272377,"obsValid":true,"obsReviewed":false,"locationPrivate":false,"subId":"S112399965"},{"speciesCode":"whrswa1","comName":"White-rumped Swallow","sciName":"Tachycineta leucorrhoa","locId":"L2633542","locName":"Parque Escolar Rural Enrique Berduc","obsDt":"2022-06-07 14:59","howMany":1,"lat":-31.7233277,"lng":-60.3272377,"obsValid":true,"obsReviewed":false,"locationPrivate":false,"subId":"S112399965"},{"speciesCode":"pvttyr1","comName":"Pearly-vented Tody-Tyrant","sciName":"Hemitriccus margaritaceiventer","locId":"L2633542","locName":"Parque Escolar Rural Enrique Berduc","obsDt":"2022-06-07 14:59","howMany":1,"lat":-31.7233277,"lng":-60.3272377,"obsValid":true,"obsReviewed":false,"locationPrivate":false,"subId":"S112399965"},{"speciesCode":"varant1","comName":"Variable Antshrike","sciName":"Thamnophilus caerulescens","locId":"L2633542","locName":"Parque Escolar Rural Enrique Berduc","obsDt":"2022-06-07 14:59","howMany":2,"lat":-31.7233277,"lng":-60.3272377,"obsValid":true,"obsReviewed":false,"locationPrivate":false,"subId":"S112399965"},{"speciesCode":"whtdov","comName":"White-tipped Dove","sciName":"Leptotila verreauxi","locId":"L2633542","locName":"Parque Escolar Rural Enrique Berduc","obsDt":"2022-06-07 14:59","howMany":6,"lat":-31.7233277,"lng":-60.3272377,"obsValid":true,"obsReviewed":false,"locationPrivate":false,"subId":"S112399965"},{"speciesCode":"giwrai1","comName":"Giant Wood-Rail","sciName":"Aramides ypecaha","locId":"L2633542","locName":"Parque Escolar Rural Enrique Berduc","obsDt":"2022-06-07 14:59","howMany":1,"lat":-31.7233277,"lng":-60.3272377,"obsValid":true,"obsReviewed":false,"locationPrivate":false,"subId":"S112399965"},{"speciesCode":"bcwfin2","comName":"Black-capped Warbling Finch","sciName":"Microspingus melanoleucus","locId":"L2633542","locName":"Parque Escolar Rural Enrique Berduc","obsDt":"2022-06-07 14:59","howMany":5,"lat":-31.7233277,"lng":-60.3272377,"obsValid":true,"obsReviewed":false,"locationPrivate":false,"subId":"S112399965"},{"speciesCode":"colplo1","comName":"Collared Plover","sciName":"Charadrius collaris","locId":"L2633542","locName":"Parque Escolar Rural Enrique Berduc","obsDt":"2022-06-07 14:59","howMany":6,"lat":-31.7233277,"lng":-60.3272377,"obsValid":true,"obsReviewed":false,"locationPrivate":false,"subId":"S112399965"},{"speciesCode":"sofspi1","comName":"Sooty-fronted Spinetail","sciName":"Synallaxis frontalis","locId":"L2633542","locName":"Parque Escolar Rural Enrique Berduc","obsDt":"2022-06-07 14:59","howMany":4,"lat":-31.7233277,"lng":-60.3272377,"obsValid":true,"obsReviewed":false,"locationPrivate":false,"subId":"S112399965"},{"speciesCode":"grasal3","comName":"Blue-gray Saltator","sciName":"Saltator coerulescens","locId":"L2633542","locName":"Parque Escolar Rural Enrique Berduc","obsDt":"2022-06-07 14:59","howMany":1,"lat":-31.7233277,"lng":-60.3272377,"obsValid":true,"obsReviewed":false,"locationPrivate":false,"subId":"S112399965"},{"speciesCode":"nabwoo1","comName":"Narrow-billed Woodcreeper","sciName":"Lepidocolaptes angustirostris","locId":"L2633542","locName":"Parque Escolar Rural Enrique Berduc","obsDt":"2022-06-07 14:59","howMany":3,"lat":-31.7233277,"lng":-60.3272377,"obsValid":true,"obsReviewed":false,"locationPrivate":false,"subId":"S112399965"},{"speciesCode":"watjac1","comName":"Wattled Jacana","sciName":"Jacana jacana","locId":"L2633542","locName":"Parque Escolar Rural Enrique Berduc","obsDt":"2022-06-07 14:59","howMany":1,"lat":-31.7233277,"lng":-60.3272377,"obsValid":true,"obsReviewed":false,"locationPrivate":false,"subId":"S112399965"},{"speciesCode":"anhing","comName":"Anhinga","sciName":"Anhinga anhinga","locId":"L2633542","locName":"Parque Escolar Rural Enrique Berduc","obsDt":"2022-06-07 14:59","howMany":3,"lat":-31.7233277,"lng":-60.3272377,"obsValid":true,"obsReviewed":false,"locationPrivate":false,"subId":"S112399965"},{"speciesCode":"whbwar2","comName":"White-browed Warbler","sciName":"Myiothlypis leucoblephara","locId":"L2633542","locName":"Parque Escolar Rural Enrique Berduc","obsDt":"2022-06-07 14:59","howMany":6,"lat":-31.7233277,"lng":-60.3272377,"obsValid":true,"obsReviewed":false,"locationPrivate":false,"subId":"S112399965"},{"speciesCode":"whfwoo1","comName":"White-fronted Woodpecker","sciName":"Melanerpes cactorum","locId":"L2633542","locName":"Parque Escolar Rural Enrique Berduc","obsDt":"2022-06-07 14:59","howMany":2,"lat":-31.7233277,"lng":-60.3272377,"obsValid":true,"obsReviewed":false,"locationPrivate":false,"subId":"S112399965"},{"speciesCode":"masyel1","comName":"Masked Yellowthroat","sciName":"Geothlypis aequinoctialis","locId":"L2633542","locName":"Parque Escolar Rural Enrique Berduc","obsDt":"2022-06-07 14:59","howMany":1,"lat":-31.7233277,"lng":-60.3272377,"obsValid":true,"obsReviewed":false,"locationPrivate":false,"subId":"S112399965"},{"speciesCode":"whctyr1","comName":"White-crested Tyrannulet","sciName":"Serpophaga subcristata","locId":"L2633542","locName":"Parque Escolar Rural Enrique Berduc","obsDt":"2022-06-07 14:59","howMany":4,"lat":-31.7233277,"lng":-60.3272377,"obsValid":true,"obsReviewed":false,"locationPrivate":false,"subId":"S112399965"},{"speciesCode":"ciwfin2","comName":"Cinnamon Warbling Finch","sciName":"Poospiza ornata","locId":"L19517190","locName":"Vía sin nombre, La Pampa, AR (-35.077, -65.031)","obsDt":"2022-06-07 14:53","howMany":8,"lat":-35.07698,"lng":-65.0312508,"obsValid":true,"obsReviewed":false,"locationPrivate":true,"subId":"S112390066"},{"speciesCode":"pigdov1","comName":"Picui Ground Dove","sciName":"Columbina picui","locId":"L19517190","locName":"Vía sin nombre, La Pampa, AR (-35.077, -65.031)","obsDt":"2022-06-07 14:53","howMany":2,"lat":-35.07698,"lng":-65.0312508,"obsValid":true,"obsReviewed":false,"locationPrivate":true,"subId":"S112390066"},{"speciesCode":"patmoc1","comName":"Patagonian Mockingbird","sciName":"Mimus patagonicus","locId":"L19517190","locName":"Vía sin nombre, La Pampa, AR (-35.077, -65.031)","obsDt":"2022-06-07 14:53","howMany":2,"lat":-35.07698,"lng":-65.0312508,"obsValid":true,"obsReviewed":false,"locationPrivate":true,"subId":"S112390066"},{"speciesCode":"bucpar","comName":"Blue-crowned Parakeet","sciName":"Thectocercus acuticaudatus","locId":"L19517190","locName":"Vía sin nombre, La Pampa, AR (-35.077, -65.031)","obsDt":"2022-06-07 14:53","howMany":3,"lat":-35.07698,"lng":-65.0312508,"obsValid":true,"obsReviewed":false,"locationPrivate":true,"subId":"S112390066"},{"speciesCode":"kelgoo1","comName":"Kelp Goose","sciName":"Chloephaga hybrida","locId":"L2763266","locName":"Misión Salesiana Ntra. Sra. de La Candelaria (AICA TF01)","obsDt":"2022-06-07 14:40","howMany":19,"lat":-53.7246667,"lng":-67.7961667,"obsValid":true,"obsReviewed":false,"locationPrivate":false,"subId":"S112393164"},{"speciesCode":"brhgul2","comName":"Brown-hooded Gull","sciName":"Chroicocephalus maculipennis","locId":"L2763266","locName":"Misión Salesiana Ntra. Sra. de La Candelaria (AICA TF01)","obsDt":"2022-06-07 14:40","howMany":51,"lat":-53.7246667,"lng":-67.7961667,"obsValid":true,"obsReviewed":false,"locationPrivate":false,"subId":"S112393164"},{"speciesCode":"chifla1","comName":"Chilean Flamingo","sciName":"Phoenicopterus chilensis","locId":"L2763266","locName":"Misión Salesiana Ntra. Sra. de La Candelaria (AICA TF01)","obsDt":"2022-06-07 14:40","howMany":7,"lat":-53.7246667,"lng":-67.7961667,"obsValid":true,"obsReviewed":false,"locationPrivate":false,"subId":"S112393164"},{"speciesCode":"whwcoo1","comName":"White-winged Coot","sciName":"Fulica leucoptera","locId":"L2763266","locName":"Misión Salesiana Ntra. Sra. de La Candelaria (AICA TF01)","obsDt":"2022-06-07 14:40","howMany":1,"lat":-53.7246667,"lng":-67.7961667,"obsValid":true,"obsReviewed":false,"locationPrivate":false,"subId":"S112393164"},{"speciesCode":"cintea","comName":"Cinnamon Teal","sciName":"Spatula cyanoptera","locId":"L2763266","locName":"Misión Salesiana Ntra. Sra. de La Candelaria (AICA TF01)","obsDt":"2022-06-07 14:40","howMany":1,"lat":-53.7246667,"lng":-67.7961667,"obsValid":true,"obsReviewed":false,"locationPrivate":false,"subId":"S112393164"},{"speciesCode":"creduc1","comName":"Crested Duck","sciName":"Lophonetta specularioides","locId":"L2763266","locName":"Misión Salesiana Ntra. Sra. de La Candelaria (AICA TF01)","obsDt":"2022-06-07 14:40","howMany":175,"lat":-53.7246667,"lng":-67.7961667,"obsValid":true,"obsReviewed":false,"locationPrivate":false,"subId":"S112393164"},{"speciesCode":"uplgoo1","comName":"Upland Goose","sciName":"Chloephaga picta","locId":"L2763266","locName":"Misión Salesiana Ntra. Sra. de La Candelaria (AICA TF01)","obsDt":"2022-06-07 14:40","howMany":2,"lat":-53.7246667,"lng":-67.7961667,"obsValid":true,"obsReviewed":false,"locationPrivate":false,"subId":"S112393164"},{"speciesCode":"flystd1","comName":"Flying Steamer-Duck","sciName":"Tachyeres patachonicus","locId":"L2763266","locName":"Misión Salesiana Ntra. Sra. de La Candelaria (AICA TF01)","obsDt":"2022-06-07 14:40","howMany":3,"lat":-53.7246667,"lng":-67.7961667,"obsValid":true,"obsReviewed":false,"locationPrivate":false,"subId":"S112393164"},{"speciesCode":"chutap1","comName":"Chucao Tapaculo","sciName":"Scelorchilus rubecula","locId":"L16322716","locName":"Sendero canal Virgen de las nieves","obsDt":"2022-06-07 13:29","howMany":2,"lat":-41.1295065,"lng":-71.4168343,"obsValid":true,"obsReviewed":false,"locationPrivate":true,"subId":"S112384647"},{"speciesCode":"pasfin1","comName":"Patagonian Sierra Finch","sciName":"Phrygilus patagonicus","locId":"L16322716","locName":"Sendero canal Virgen de las nieves","obsDt":"2022-06-07 13:29","howMany":2,"lat":-41.1295065,"lng":-71.4168343,"obsValid":true,"obsReviewed":false,"locationPrivate":true,"subId":"S112384647"},{"speciesCode":"tuttyr1","comName":"Tufted Tit-Tyrant","sciName":"Anairetes parulus","locId":"L16322716","locName":"Sendero canal Virgen de las nieves","obsDt":"2022-06-07 13:29","howMany":5,"lat":-41.1295065,"lng":-71.4168343,"obsValid":true,"obsReviewed":false,"locationPrivate":true,"subId":"S112384647"},{"speciesCode":"thtray1","comName":"Thorn-tailed Rayadito","sciName":"Aphrastura spinicauda","locId":"L16322716","locName":"Sendero canal Virgen de las nieves","obsDt":"2022-06-07 13:29","howMany":3,"lat":-41.1295065,"lng":-71.4168343,"obsValid":true,"obsReviewed":false,"locationPrivate":true,"subId":"S112384647"},{"speciesCode":"aupowl1","comName":"Austral Pygmy-Owl","sciName":"Glaucidium nana","locId":"L15865719","locName":"Mallin","obsDt":"2022-06-07 13:28","howMany":1,"lat":-39.9697409,"lng":-71.0790176,"obsValid":true,"obsReviewed":false,"locationPrivate":true,"subId":"S112390832"},{"speciesCode":"gilhum1","comName":"Gilded Hummingbird","sciName":"Hylocharis chrysura","locId":"L10677587","locName":"17 San Ignacio, Longchamps, Buenos Aires, AR (-34,848, -58,382)","obsDt":"2022-06-07 13:26","howMany":1,"lat":-34.848488,"lng":-58.3822935,"obsValid":true,"obsReviewed":false,"locationPrivate":true,"subId":"S112385264"},{"speciesCode":"grbwoo3","comName":"Green-barred Woodpecker","sciName":"Colaptes melanochloros","locId":"L10677587","locName":"17 San Ignacio, Longchamps, Buenos Aires, AR (-34,848, -58,382)","obsDt":"2022-06-07 13:26","howMany":1,"lat":-34.848488,"lng":-58.3822935,"obsValid":true,"obsReviewed":false,"locationPrivate":true,"subId":"S112385264"},{"speciesCode":"tropar","comName":"Tropical Parula","sciName":"Setophaga pitiayumi","locId":"L10677587","locName":"17 San Ignacio, Longchamps, Buenos Aires, AR (-34,848, -58,382)","obsDt":"2022-06-07 13:26","howMany":1,"lat":-34.848488,"lng":-58.3822935,"obsValid":true,"obsReviewed":false,"locationPrivate":true,"subId":"S112385264"},{"speciesCode":"yecpar","comName":"Yellow-chevroned Parakeet","sciName":"Brotogeris chiriri","locId":"L10677587","locName":"17 San Ignacio, Longchamps, Buenos Aires, AR (-34,848, -58,382)","obsDt":"2022-06-07 13:26","howMany":4,"lat":-34.848488,"lng":-58.3822935,"obsValid":true,"obsReviewed":false,"locationPrivate":true,"subId":"S112385264"},{"speciesCode":"epaori4","comName":"Variable Oriole","sciName":"Icterus pyrrhopterus","locId":"L10677587","locName":"17 San Ignacio, Longchamps, Buenos Aires, AR (-34,848, -58,382)","obsDt":"2022-06-07 13:26","howMany":1,"lat":-34.848488,"lng":-58.3822935,"obsValid":true,"obsReviewed":false,"locationPrivate":true,"subId":"S112385264"},{"speciesCode":"bkhpar","comName":"Nanday Parakeet","sciName":"Aratinga nenday","locId":"L976247","locName":"Reserva Ecológica Ciudad Universitaria - Costanera Norte","obsDt":"2022-06-07 13:22","howMany":24,"lat":-34.5385203,"lng":-58.4437037,"obsValid":true,"obsReviewed":false,"locationPrivate":false,"subId":"S112386220"},{"speciesCode":"yebcar","comName":"Yellow-billed Cardinal","sciName":"Paroaria capitata","locId":"L976247","locName":"Reserva Ecológica Ciudad Universitaria - Costanera Norte","obsDt":"2022-06-07 13:22","howMany":1,"lat":-34.5385203,"lng":-58.4437037,"obsValid":true,"obsReviewed":false,"locationPrivate":false,"subId":"S112386220"},{"speciesCode":"dulgua1","comName":"Dusky-legged Guan","sciName":"Penelope obscura","locId":"L976247","locName":"Reserva Ecológica Ciudad Universitaria - Costanera Norte","obsDt":"2022-06-07 13:22","howMany":2,"lat":-34.5385203,"lng":-58.4437037,"obsValid":true,"obsReviewed":false,"locationPrivate":false,"subId":"S112386220"},{"speciesCode":"limpki","comName":"Limpkin","sciName":"Aramus guarauna","locId":"L976247","locName":"Reserva Ecológica Ciudad Universitaria - Costanera Norte","obsDt":"2022-06-07 13:22","howMany":3,"lat":-34.5385203,"lng":-58.4437037,"obsValid":true,"obsReviewed":false,"locationPrivate":false,"subId":"S112386220"},{"speciesCode":"bawswa1","comName":"Blue-and-white Swallow","sciName":"Pygochelidon cyanoleuca","locId":"L976247","locName":"Reserva Ecológica Ciudad Universitaria - Costanera Norte","obsDt":"2022-06-07 13:22","howMany":4,"lat":-34.5385203,"lng":-58.4437037,"obsValid":true,"obsReviewed":false,"locationPrivate":false,"subId":"S112386220"},{"speciesCode":"reccar","comName":"Red-crested Cardinal","sciName":"Paroaria coronata","locId":"L976247","locName":"Reserva Ecológica Ciudad Universitaria - Costanera Norte","obsDt":"2022-06-07 13:22","howMany":2,"lat":-34.5385203,"lng":-58.4437037,"obsValid":true,"obsReviewed":false,"locationPrivate":false,"subId":"S112386220"},{"speciesCode":"andcon1","comName":"Andean Condor","sciName":"Vultur gryphus","locId":"L17959586","locName":"Casa Calle Unión","obsDt":"2022-06-07 13:10","howMany":1,"lat":-40.1484201,"lng":-71.3549479,"obsValid":true,"obsReviewed":false,"locationPrivate":true,"subId":"S112403974"},{"speciesCode":"whbhum1","comName":"White-bellied Hummingbird","sciName":"Elliotomyia chionogaster","locId":"L10139907","locName":"san miguel","obsDt":"2022-06-07 12:30","howMany":2,"lat":-26.820977,"lng":-65.2573131,"obsValid":true,"obsReviewed":false,"locationPrivate":true,"subId":"S112379345"},{"speciesCode":"brcred1","comName":"Brown-capped Redstart","sciName":"Myioborus brunniceps","locId":"L10139907","locName":"san miguel","obsDt":"2022-06-07 12:30","howMany":1,"lat":-26.820977,"lng":-65.2573131,"obsValid":true,"obsReviewed":false,"locationPrivate":true,"subId":"S112379345"},{"speciesCode":"gyctyr2","comName":"Straneck's Tyrannulet","sciName":"Serpophaga griseicapilla","locId":"L10139907","locName":"san miguel","obsDt":"2022-06-07 12:30","howMany":2,"lat":-26.820977,"lng":-65.2573131,"obsValid":true,"obsReviewed":false,"locationPrivate":true,"subId":"S112379345"},{"speciesCode":"bcbeag1","comName":"Black-chested Buzzard-Eagle","sciName":"Geranoaetus melanoleucus","locId":"L19513718","locName":"Juan Jorba, San Luis, AR (-33.616, -65.273)","obsDt":"2022-06-07 11:48","howMany":1,"lat":-33.6163395,"lng":-65.2734021,"obsValid":true,"obsReviewed":false,"locationPrivate":true,"subId":"S112375275"},{"speciesCode":"rebhaw2","comName":"Variable Hawk","sciName":"Geranoaetus polyosoma","locId":"L19513718","locName":"Juan Jorba, San Luis, AR (-33.616, -65.273)","obsDt":"2022-06-07 11:48","howMany":2,"lat":-33.6163395,"lng":-65.2734021,"obsValid":true,"obsReviewed":false,"locationPrivate":true,"subId":"S112375275"},{"speciesCode":"dolgul2","comName":"Dolphin Gull","sciName":"Leucophaeus scoresbii","locId":"L2412064","locName":"Río Gallegos (AICA SC04)--Escuela de kayak I Yenu Jono","obsDt":"2022-06-07 11:45","howMany":3,"lat":-51.6090575,"lng":-69.230576,"obsValid":true,"obsReviewed":false,"locationPrivate":false,"subId":"S112386678"},{"speciesCode":"angpet1","comName":"Southern Giant-Petrel","sciName":"Macronectes giganteus","locId":"L2412064","locName":"Río Gallegos (AICA SC04)--Escuela de kayak I Yenu Jono","obsDt":"2022-06-07 11:45","howMany":4,"lat":-51.6090575,"lng":-69.230576,"obsValid":true,"obsReviewed":false,"locationPrivate":false,"subId":"S112386678"},{"speciesCode":"magoys1","comName":"Magellanic Oystercatcher","sciName":"Haematopus leucopodus","locId":"L2412064","locName":"Río Gallegos (AICA SC04)--Escuela de kayak I Yenu Jono","obsDt":"2022-06-07 11:45","howMany":10,"lat":-51.6090575,"lng":-69.230576,"obsValid":true,"obsReviewed":false,"locationPrivate":false,"subId":"S112386678"},{"speciesCode":"magpen1","comName":"Magellanic Penguin","sciName":"Spheniscus magellanicus","locId":"L2412064","locName":"Río Gallegos (AICA SC04)--Escuela de kayak I Yenu Jono","obsDt":"2022-06-07 11:45","howMany":3,"lat":-51.6090575,"lng":-69.230576,"obsValid":true,"obsReviewed":false,"locationPrivate":false,"subId":"S112386678"},{"speciesCode":"impcor1","comName":"Imperial Cormorant","sciName":"Leucocarbo atriceps","locId":"L2412064","locName":"Río Gallegos (AICA SC04)--Escuela de kayak I Yenu Jono","obsDt":"2022-06-07 11:45","howMany":7,"lat":-51.6090575,"lng":-69.230576,"obsValid":true,"obsReviewed":false,"locationPrivate":false,"subId":"S112386678"},{"speciesCode":"bafibi1","comName":"Bare-faced Ibis","sciName":"Phimosus infuscatus","locId":"L3119790","locName":"Laguna de San Vicente","obsDt":"2022-06-07 11:38","howMany":1,"lat":-35.0157102,"lng":-58.4255934,"obsValid":true,"obsReviewed":false,"locationPrivate":false,"subId":"S112376515"},{"speciesCode":"ruther1","comName":"Rufescent Tiger-Heron","sciName":"Tigrisoma lineatum","locId":"L3119790","locName":"Laguna de San Vicente","obsDt":"2022-06-07 11:38","howMany":1,"lat":-35.0157102,"lng":-58.4255934,"obsValid":true,"obsReviewed":false,"locationPrivate":false,"subId":"S112376515"},{"speciesCode":"frbtho1","comName":"Freckle-breasted Thornbird","sciName":"Phacellodomus striaticollis","locId":"L3119790","locName":"Laguna de San Vicente","obsDt":"2022-06-07 11:38","howMany":1,"lat":-35.0157102,"lng":-58.4255934,"obsValid":true,"obsReviewed":false,"locationPrivate":false,"subId":"S112376515"},{"speciesCode":"bratea1","comName":"Brazilian Teal","sciName":"Amazonetta brasiliensis","locId":"L3119790","locName":"Laguna de San Vicente","obsDt":"2022-06-07 11:38","howMany":2,"lat":-35.0157102,"lng":-58.4255934,"obsValid":true,"obsReviewed":false,"locationPrivate":false,"subId":"S112376515"},{"speciesCode":"spetyr1","comName":"Spectacled Tyrant","sciName":"Hymenops perspicillatus","locId":"L3119790","locName":"Laguna de San Vicente","obsDt":"2022-06-07 11:38","howMany":1,"lat":-35.0157102,"lng":-58.4255934,"obsValid":true,"obsReviewed":false,"locationPrivate":false,"subId":"S112376515"},{"speciesCode":"yewbla2","comName":"Yellow-winged Blackbird","sciName":"Agelasticus thilius","locId":"L3119790","locName":"Laguna de San Vicente","obsDt":"2022-06-07 11:38","howMany":2,"lat":-35.0157102,"lng":-58.4255934,"obsValid":true,"obsReviewed":false,"locationPrivate":false,"subId":"S112376515"},{"speciesCode":"cocher1","comName":"Cocoi Heron","sciName":"Ardea cocoi","locId":"L3119790","locName":"Laguna de San Vicente","obsDt":"2022-06-07 11:38","howMany":1,"lat":-35.0157102,"lng":-58.4255934,"obsValid":true,"obsReviewed":false,"locationPrivate":false,"subId":"S112376515"},{"speciesCode":"eursta","comName":"European Starling","sciName":"Sturnus vulgaris","locId":"L14448765","locName":"Embalse - Canal de Central Nuclear","obsDt":"2022-06-07 11:15","howMany":2,"lat":-32.2419626,"lng":-64.4692208,"obsValid":true,"obsReviewed":false,"locationPrivate":true,"subId":"S112382146"},{"speciesCode":"amekes","comName":"American Kestrel","sciName":"Falco sparverius","locId":"L8074213","locName":"Ciudad Universitaria","obsDt":"2022-06-07 10:51","howMany":1,"lat":-31.4341929,"lng":-64.1854679,"obsValid":true,"obsReviewed":false,"locationPrivate":false,"subId":"S112381811"},{"speciesCode":"mccfin1","comName":"Many-colored Chaco Finch","sciName":"Saltatricula multicolor","locId":"L8074213","locName":"Ciudad Universitaria","obsDt":"2022-06-07 10:51","howMany":1,"lat":-31.4341929,"lng":-64.1854679,"obsValid":true,"obsReviewed":false,"locationPrivate":false,"subId":"S112381811"},{"speciesCode":"shicow","comName":"Shiny Cowbird","sciName":"Molothrus bonariensis","locId":"L8074213","locName":"Ciudad Universitaria","obsDt":"2022-06-07 10:51","howMany":1,"lat":-31.4341929,"lng":-64.1854679,"obsValid":true,"obsReviewed":false,"locationPrivate":false,"subId":"S112381811"},{"speciesCode":"camfli1","comName":"Campo Flicker","sciName":"Colaptes campestris","locId":"L12940650","locName":"Jardín Botánico Municipal Ing. Lorenzo Parodi","obsDt":"2022-06-07 10:32","howMany":2,"lat":-31.5870902,"lng":-60.7072949,"obsValid":true,"obsReviewed":false,"locationPrivate":false,"subId":"S112390821"},{"speciesCode":"whtgre3","comName":"White-tufted Grebe","sciName":"Rollandia rolland","locId":"L12940650","locName":"Jardín Botánico Municipal Ing. Lorenzo Parodi","obsDt":"2022-06-07 10:32","howMany":1,"lat":-31.5870902,"lng":-60.7072949,"obsValid":true,"obsReviewed":false,"locationPrivate":false,"subId":"S112390821"},{"speciesCode":"yecspi2","comName":"Yellow-chinned Spinetail","sciName":"Certhiaxis cinnamomeus","locId":"L12940650","locName":"Jardín Botánico Municipal Ing. Lorenzo Parodi","obsDt":"2022-06-07 10:32","howMany":2,"lat":-31.5870902,"lng":-60.7072949,"obsValid":true,"obsReviewed":false,"locationPrivate":false,"subId":"S112390821"},{"speciesCode":"snoegr","comName":"Snowy Egret","sciName":"Egretta thula","locId":"L12940650","locName":"Jardín Botánico Municipal Ing. Lorenzo Parodi","obsDt":"2022-06-07 10:32","howMany":1,"lat":-31.5870902,"lng":-60.7072949,"obsValid":true,"obsReviewed":false,"locationPrivate":false,"subId":"S112390821"},{"speciesCode":"comgal1","comName":"Common Gallinule","sciName":"Gallinula galeata","locId":"L12940650","locName":"Jardín Botánico Municipal Ing. Lorenzo Parodi","obsDt":"2022-06-07 10:32","howMany":23,"lat":-31.5870902,"lng":-60.7072949,"obsValid":true,"obsReviewed":false,"locationPrivate":false,"subId":"S112390821"},{"speciesCode":"greant1","comName":"Great Antshrike","sciName":"Taraba major","locId":"L12940650","locName":"Jardín Botánico Municipal Ing. Lorenzo Parodi","obsDt":"2022-06-07 10:32","howMany":1,"lat":-31.5870902,"lng":-60.7072949,"obsValid":true,"obsReviewed":false,"locationPrivate":false,"subId":"S112390821"},{"speciesCode":"greegr","comName":"Great Egret","sciName":"Ardea alba","locId":"L12940650","locName":"Jardín Botánico Municipal Ing. Lorenzo Parodi","obsDt":"2022-06-07 10:32","howMany":1,"lat":-31.5870902,"lng":-60.7072949,"obsValid":true,"obsReviewed":false,"locationPrivate":false,"subId":"S112390821"},{"speciesCode":"pibgre","comName":"Pied-billed Grebe","sciName":"Podilymbus podiceps","locId":"L12940650","locName":"Jardín Botánico Municipal Ing. Lorenzo Parodi","obsDt":"2022-06-07 10:32","howMany":1,"lat":-31.5870902,"lng":-60.7072949,"obsValid":true,"obsReviewed":false,"locationPrivate":false,"subId":"S112390821"},{"speciesCode":"grhgul","comName":"Gray-hooded Gull","sciName":"Chroicocephalus cirrocephalus","locId":"L12940650","locName":"Jardín Botánico Municipal Ing. Lorenzo Parodi","obsDt":"2022-06-07 10:32","howMany":11,"lat":-31.5870902,"lng":-60.7072949,"obsValid":true,"obsReviewed":false,"locationPrivate":false,"subId":"S112390821"},{"speciesCode":"chiswa1","comName":"Chilean Swallow","sciName":"Tachycineta leucopyga","locId":"L12940650","locName":"Jardín Botánico Municipal Ing. Lorenzo Parodi","obsDt":"2022-06-07 10:32","howMany":7,"lat":-31.5870902,"lng":-60.7072949,"obsValid":true,"obsReviewed":false,"locationPrivate":false,"subId":"S112390821"},{"speciesCode":"refcoo1","comName":"Red-fronted Coot","sciName":"Fulica rufifrons","locId":"L12940650","locName":"Jardín Botánico Municipal Ing. Lorenzo Parodi","obsDt":"2022-06-07 10:32","howMany":7,"lat":-31.5870902,"lng":-60.7072949,"obsValid":true,"obsReviewed":false,"locationPrivate":false,"subId":"S112390821"},{"speciesCode":"gresht1","comName":"Great Shrike-Tyrant","sciName":"Agriornis lividus","locId":"L3448931","locName":"Esquel--La Cascada","obsDt":"2022-06-07 10:20","howMany":1,"lat":-42.8921271,"lng":-71.301527,"obsValid":true,"obsReviewed":false,"locationPrivate":false,"subId":"S112369535"},{"speciesCode":"gyhpar1","comName":"Gray-hooded Parakeet","sciName":"Psilopsiagon aymara","locId":"L19514217","locName":"Control ambiental","obsDt":"2022-06-07 10:20","howMany":8,"lat":-31.4134902,"lng":-64.4493311,"obsValid":true,"obsReviewed":false,"locationPrivate":true,"subId":"S112377552"},{"speciesCode":"rubpep1","comName":"Rufous-browed Peppershrike","sciName":"Cyclarhis gujanensis","locId":"L17005392","locName":"Baño Seco","obsDt":"2022-06-07 10:19","howMany":1,"lat":-31.1683333,"lng":-64.5006214,"obsValid":true,"obsReviewed":false,"locationPrivate":true,"subId":"S112369383"},{"speciesCode":"grwtyr1","comName":"Greater Wagtail-Tyrant","sciName":"Stigmatura budytoides","locId":"L17005392","locName":"Baño Seco","obsDt":"2022-06-07 10:19","howMany":2,"lat":-31.1683333,"lng":-64.5006214,"obsValid":true,"obsReviewed":false,"locationPrivate":true,"subId":"S112369383"},{"speciesCode":"tattin1","comName":"Tataupa Tinamou","sciName":"Crypturellus tataupa","locId":"L17005392","locName":"Baño Seco","obsDt":"2022-06-07 10:19","howMany":1,"lat":-31.1683333,"lng":-64.5006214,"obsValid":true,"obsReviewed":false,"locationPrivate":true,"subId":"S112369383"},{"speciesCode":"robpoc1","comName":"Rosy-billed Pochard","sciName":"Netta peposaca","locId":"L472208","locName":"Reserva Ecológica Costanera Sur (AICA BA25)","obsDt":"2022-06-07 10:14","howMany":4,"lat":-34.6082039,"lng":-58.3539677,"obsValid":true,"obsReviewed":false,"locationPrivate":false,"subId":"S112377839"},{"speciesCode":"cosswa1","comName":"Coscoroba Swan","sciName":"Coscoroba coscoroba","locId":"L472208","locName":"Reserva Ecológica Costanera Sur (AICA BA25)","obsDt":"2022-06-07 10:14","howMany":5,"lat":-34.6082039,"lng":-58.3539677,"obsValid":true,"obsReviewed":false,"locationPrivate":false,"subId":"S112377839"},{"speciesCode":"souscr1","comName":"Southern Screamer","sciName":"Chauna torquata","locId":"L472208","locName":"Reserva Ecológica Costanera Sur (AICA BA25)","obsDt":"2022-06-07 10:14","howMany":2,"lat":-34.6082039,"lng":-58.3539677,"obsValid":true,"obsReviewed":false,"locationPrivate":false,"subId":"S112377839"},{"speciesCode":"ashgoo1","comName":"Ashy-headed Goose","sciName":"Chloephaga poliocephala","locId":"L13843596","locName":"General Villegas 301–399, San Carlos De Barloche AR-Río Negro -41.13556, -71.30749","obsDt":"2022-06-07 10:00","howMany":8,"lat":-41.135562,"lng":-71.307486,"obsValid":true,"obsReviewed":false,"locationPrivate":true,"subId":"S112391834"},{"speciesCode":"whbpic1","comName":"White-barred Piculet","sciName":"Picumnus cirratus","locId":"L7129208","locName":"Casa Grande--Balcón De Punilla","obsDt":"2022-06-07 09:36","howMany":2,"lat":-31.1661929,"lng":-64.5017799,"obsValid":true,"obsReviewed":false,"locationPrivate":false,"subId":"S112368602"},{"speciesCode":"andtin1","comName":"Andean Tinamou","sciName":"Nothoprocta pentlandii","locId":"L7129208","locName":"Casa Grande--Balcón De Punilla","obsDt":"2022-06-07 09:36","howMany":1,"lat":-31.1661929,"lng":-64.5017799,"obsValid":true,"obsReviewed":false,"locationPrivate":false,"subId":"S112368602"},{"speciesCode":"retcom1","comName":"Red-tailed Comet","sciName":"Sappho sparganurus","locId":"L7129208","locName":"Casa Grande--Balcón De Punilla","obsDt":"2022-06-07 09:36","howMany":1,"lat":-31.1661929,"lng":-64.5017799,"obsValid":true,"obsReviewed":false,"locationPrivate":false,"subId":"S112368602"},{"speciesCode":"olccre1","comName":"Olive-crowned Crescentchest","sciName":"Melanopareia maximiliani","locId":"L7129208","locName":"Casa Grande--Balcón De Punilla","obsDt":"2022-06-07 09:36","howMany":1,"lat":-31.1661929,"lng":-64.5017799,"obsValid":true,"obsReviewed":false,"locationPrivate":false,"subId":"S112368602"},{"speciesCode":"barwaf2","comName":"Black-and-chestnut Warbling Finch","sciName":"Poospiza whitii","locId":"L19513901","locName":"Córdoba, AR (-30.428, -64.268)","obsDt":"2022-06-07 09:34","howMany":2,"lat":-30.4278039,"lng":-64.2676216,"obsValid":true,"obsReviewed":false,"locationPrivate":true,"subId":"S112376101"},{"speciesCode":"brutin1","comName":"Brushland Tinamou","sciName":"Nothoprocta cinerascens","locId":"L19513901","locName":"Córdoba, AR (-30.428, -64.268)","obsDt":"2022-06-07 09:34","howMany":3,"lat":-30.4278039,"lng":-64.2676216,"obsValid":true,"obsReviewed":false,"locationPrivate":true,"subId":"S112376101"},{"speciesCode":"stcspi2","comName":"Stripe-crowned Spinetail","sciName":"Cranioleuca pyrrhophia","locId":"L19513901","locName":"Córdoba, AR (-30.428, -64.268)","obsDt":"2022-06-07 09:34","howMany":2,"lat":-30.4278039,"lng":-64.2676216,"obsValid":true,"obsReviewed":false,"locationPrivate":true,"subId":"S112376101"},{"speciesCode":"chaear1","comName":"Chaco Earthcreeper","sciName":"Tarphonomus certhioides","locId":"L19513901","locName":"Córdoba, AR (-30.428, -64.268)","obsDt":"2022-06-07 09:34","howMany":2,"lat":-30.4278039,"lng":-64.2676216,"obsValid":true,"obsReviewed":false,"locationPrivate":true,"subId":"S112376101"},{"speciesCode":"ultgro1","comName":"Ultramarine Grosbeak","sciName":"Cyanoloxia brissonii","locId":"L19513901","locName":"Córdoba, AR (-30.428, -64.268)","obsDt":"2022-06-07 09:34","howMany":6,"lat":-30.4278039,"lng":-64.2676216,"obsValid":true,"obsReviewed":false,"locationPrivate":true,"subId":"S112376101"},{"speciesCode":"ybttyr1","comName":"Yellow-billed Tit-Tyrant","sciName":"Anairetes flavirostris","locId":"L19513901","locName":"Córdoba, AR (-30.428, -64.268)","obsDt":"2022-06-07 09:34","howMany":4,"lat":-30.4278039,"lng":-64.2676216,"obsValid":true,"obsReviewed":false,"locationPrivate":true,"subId":"S112376101"},{"speciesCode":"gyhsif1","comName":"Gray-hooded Sierra Finch","sciName":"Phrygilus gayi","locId":"L2365808","locName":"Esquel--RNU Laguna La Zeta","obsDt":"2022-06-07 09:30","howMany":2,"lat":-42.8850209,"lng":-71.3421249,"obsValid":true,"obsReviewed":false,"locationPrivate":false,"subId":"S112369219"},{"speciesCode":"gycwor1","comName":"Gray-cowled Wood-Rail","sciName":"Aramides cajaneus","locId":"L6539233","locName":"Proyecto Reserva Natural Yrigoyen","obsDt":"2022-06-07 08:55","howMany":2,"lat":-34.5139448,"lng":-58.4702002,"obsValid":true,"obsReviewed":false,"locationPrivate":false,"subId":"S112372828"},{"speciesCode":"sobtyr1","comName":"Southern Beardless-Tyrannulet","sciName":"Camptostoma obsoletum","locId":"L6539233","locName":"Proyecto Reserva Natural Yrigoyen","obsDt":"2022-06-07 08:55","howMany":1,"lat":-34.5139448,"lng":-58.4702002,"obsValid":true,"obsReviewed":false,"locationPrivate":false,"subId":"S112372828"},{"speciesCode":"sobcac1","comName":"Solitary Black Cacique","sciName":"Cacicus solitarius","locId":"L6539233","locName":"Proyecto Reserva Natural Yrigoyen","obsDt":"2022-06-07 08:55","howMany":1,"lat":-34.5139448,"lng":-58.4702002,"obsValid":true,"obsReviewed":false,"locationPrivate":false,"subId":"S112372828"},{"speciesCode":"chewoo3","comName":"Checkered Woodpecker","sciName":"Dryobates mixtus","locId":"L6539233","locName":"Proyecto Reserva Natural Yrigoyen","obsDt":"2022-06-07 08:55","howMany":2,"lat":-34.5139448,"lng":-58.4702002,"obsValid":true,"obsReviewed":false,"locationPrivate":false,"subId":"S112372828"},{"speciesCode":"rucsee1","comName":"Rusty-collared Seedeater","sciName":"Sporophila collaris","locId":"L6539233","locName":"Proyecto Reserva Natural Yrigoyen","obsDt":"2022-06-07 08:55","howMany":1,"lat":-34.5139448,"lng":-58.4702002,"obsValid":true,"obsReviewed":false,"locationPrivate":false,"subId":"S112372828"},{"speciesCode":"bufpar","comName":"Turquoise-fronted Parrot","sciName":"Amazona aestiva","locId":"L6539233","locName":"Proyecto Reserva Natural Yrigoyen","obsDt":"2022-06-07 08:55","howMany":1,"lat":-34.5139448,"lng":-58.4702002,"obsValid":true,"obsReviewed":false,"locationPrivate":false,"subId":"S112372828"},{"speciesCode":"wrlrus1","comName":"Wren-like Rushbird","sciName":"Phleocryptes melanops","locId":"L6539233","locName":"Proyecto Reserva Natural Yrigoyen","obsDt":"2022-06-07 08:55","howMany":1,"lat":-34.5139448,"lng":-58.4702002,"obsValid":true,"obsReviewed":false,"locationPrivate":false,"subId":"S112372828"},{"speciesCode":"docsee1","comName":"Double-collared Seedeater","sciName":"Sporophila caerulescens","locId":"L6539233","locName":"Proyecto Reserva Natural Yrigoyen","obsDt":"2022-06-07 08:55","howMany":1,"lat":-34.5139448,"lng":-58.4702002,"obsValid":true,"obsReviewed":false,"locationPrivate":false,"subId":"S112372828"},{"speciesCode":"heptan","comName":"Hepatic Tanager","sciName":"Piranga flava","locId":"L6539233","locName":"Proyecto Reserva Natural Yrigoyen","obsDt":"2022-06-07 08:55","howMany":2,"lat":-34.5139448,"lng":-58.4702002,"obsValid":true,"obsReviewed":false,"locationPrivate":false,"subId":"S112372828"},{"speciesCode":"aplfal","comName":"Aplomado Falcon","sciName":"Falco femoralis","locId":"L5499934","locName":"Pan de Azucar - Puente","obsDt":"2022-06-07 08:20","howMany":2,"lat":-31.2652778,"lng":-64.3355556,"obsValid":true,"obsReviewed":false,"locationPrivate":true,"subId":"S112377758"},{"speciesCode":"fepowl","comName":"Ferruginous Pygmy-Owl","sciName":"Glaucidium brasilianum","locId":"L12452023","locName":"Parque Guillermina","obsDt":"2022-06-07 07:00","howMany":1,"lat":-26.821076,"lng":-65.2569827,"obsValid":true,"obsReviewed":false,"locationPrivate":true,"subId":"S112360144"},{"speciesCode":"burowl","comName":"Burrowing Owl","sciName":"Athene cunicularia","locId":"L12428059","locName":"camino a Gorostiaga","obsDt":"2022-06-06 23:15","howMany":2,"lat":-34.8171119,"lng":-59.902465,"obsValid":true,"obsReviewed":false,"locationPrivate":true,"subId":"S112398335"},{"speciesCode":"strowl1","comName":"Striped Owl","sciName":"Asio clamator","locId":"L12428059","locName":"camino a Gorostiaga","obsDt":"2022-06-06 23:15","howMany":1,"lat":-34.8171119,"lng":-59.902465,"obsValid":true,"obsReviewed":false,"locationPrivate":true,"subId":"S112398335"},{"speciesCode":"brnowl","comName":"Barn Owl","sciName":"Tyto alba","locId":"L12428059","locName":"camino a Gorostiaga","obsDt":"2022-06-06 23:15","howMany":1,"lat":-34.8171119,"lng":-59.902465,"obsValid":true,"obsReviewed":false,"locationPrivate":true,"subId":"S112398335"},{"speciesCode":"sporai","comName":"Spotted Rail","sciName":"Pardirallus maculatus","locId":"L6422075","locName":"Establecimiento San Rafael","obsDt":"2022-06-06 18:52","howMany":1,"lat":-27.2785476,"lng":-59.0361071,"obsValid":true,"obsReviewed":false,"locationPrivate":false,"subId":"S112332359"},{"speciesCode":"whimon1","comName":"White Monjita","sciName":"Xolmis irupero","locId":"L19504101","locName":"1411 Doctor Carlos Gaudard, Río Cuarto, Córdoba, AR (-33,129, -64,362)","obsDt":"2022-06-06 17:42","howMany":1,"lat":-33.1285625,"lng":-64.3624875,"obsValid":true,"obsReviewed":false,"locationPrivate":true,"subId":"S112328566"},{"speciesCode":"chbtan1","comName":"Chestnut-backed Tanager","sciName":"Stilpnia preciosa","locId":"L3618209","locName":"San Pedro (AICA MI12)","obsDt":"2022-06-06 17:25","howMany":1,"lat":-26.6244422,"lng":-54.1081381,"obsValid":true,"obsReviewed":false,"locationPrivate":false,"subId":"S112326392"},{"speciesCode":"mitpar","comName":"Mitred Parakeet","sciName":"Psittacara mitratus","locId":"L11238291","locName":"Buen Pastor, AR (-24,784, -65,431)","obsDt":"2022-06-06 17:03","howMany":15,"lat":-24.7839256,"lng":-65.4312864,"obsValid":true,"obsReviewed":false,"locationPrivate":true,"subId":"S112400560"},{"speciesCode":"rusflo1","comName":"Rusty Flowerpiercer","sciName":"Diglossa sittoides","locId":"L9335630","locName":"Mi casa","obsDt":"2022-06-06 17:00","howMany":1,"lat":-24.769944,"lng":-65.3880406,"obsValid":true,"obsReviewed":false,"locationPrivate":true,"subId":"S112365661"},{"speciesCode":"magsto1","comName":"Maguari Stork","sciName":"Ciconia maguari","locId":"L2763212","locName":"Reserva Integral Laguna de los Padres","obsDt":"2022-06-06 16:54","howMany":1,"lat":-37.9393333,"lng":-57.7371667,"obsValid":true,"obsReviewed":false,"locationPrivate":false,"subId":"S112324401"},{"speciesCode":"wfwduc1","comName":"White-faced Whistling-Duck","sciName":"Dendrocygna viduata","locId":"L2763212","locName":"Reserva Integral Laguna de los Padres","obsDt":"2022-06-06 16:54","howMany":2,"lat":-37.9393333,"lng":-57.7371667,"obsValid":true,"obsReviewed":false,"locationPrivate":false,"subId":"S112324401"},{"speciesCode":"plurai1","comName":"Plumbeous Rail","sciName":"Pardirallus sanguinolentus","locId":"L4640176","locName":"Parque Finky","obsDt":"2022-06-06 16:29","howMany":10,"lat":-34.7874441,"lng":-58.3992863,"obsValid":true,"obsReviewed":false,"locationPrivate":false,"subId":"S112362477"},{"speciesCode":"plcjay1","comName":"Plush-crested Jay","sciName":"Cyanocorax chrysops","locId":"L18893687","locName":"La Rapanea y El Laurel","obsDt":"2022-06-06 16:10","howMany":2,"lat":-26.8050724,"lng":-65.3189299,"obsValid":true,"obsReviewed":false,"locationPrivate":true,"subId":"S112327928"},{"speciesCode":"oliwoo1","comName":"Olivaceous Woodcreeper","sciName":"Sittasomus griseicapillus","locId":"L18893687","locName":"La Rapanea y El Laurel","obsDt":"2022-06-06 16:10","howMany":1,"lat":-26.8050724,"lng":-65.3189299,"obsValid":true,"obsReviewed":false,"locationPrivate":true,"subId":"S112327928"},{"speciesCode":"moctyr2","comName":"Mottle-cheeked Tyrannulet","sciName":"Phylloscartes ventralis","locId":"L18893687","locName":"La Rapanea y El Laurel","obsDt":"2022-06-06 16:10","howMany":1,"lat":-26.8050724,"lng":-65.3189299,"obsValid":true,"obsReviewed":false,"locationPrivate":true,"subId":"S112327928"},{"speciesCode":"suifly1","comName":"Suiriri Flycatcher","sciName":"Suiriri suiriri","locId":"L18893687","locName":"La Rapanea y El Laurel","obsDt":"2022-06-06 16:10","howMany":1,"lat":-26.8050724,"lng":-65.3189299,"obsValid":true,"obsReviewed":false,"locationPrivate":true,"subId":"S112327928"},{"speciesCode":"yeofly1","comName":"Yellow-olive Flycatcher","sciName":"Tolmomyias sulphurescens","locId":"L18893687","locName":"La Rapanea y El Laurel","obsDt":"2022-06-06 16:10","howMany":1,"lat":-26.8050724,"lng":-65.3189299,"obsValid":true,"obsReviewed":false,"locationPrivate":true,"subId":"S112327928"},{"speciesCode":"tropew1","comName":"Tropical Pewee","sciName":"Contopus cinereus","locId":"L18893687","locName":"La Rapanea y El Laurel","obsDt":"2022-06-06 16:10","howMany":1,"lat":-26.8050724,"lng":-65.3189299,"obsValid":true,"obsReviewed":false,"locationPrivate":true,"subId":"S112327928"},{"speciesCode":"goowoo1","comName":"Golden-olive Woodpecker","sciName":"Colaptes rubiginosus","locId":"L18893687","locName":"La Rapanea y El Laurel","obsDt":"2022-06-06 16:10","howMany":2,"lat":-26.8050724,"lng":-65.3189299,"obsValid":true,"obsReviewed":false,"locationPrivate":true,"subId":"S112327928"},{"speciesCode":"schpar1","comName":"Scaly-headed Parrot","sciName":"Pionus maximiliani","locId":"L18893687","locName":"La Rapanea y El Laurel","obsDt":"2022-06-06 16:10","howMany":4,"lat":-26.8050724,"lng":-65.3189299,"obsValid":true,"obsReviewed":false,"locationPrivate":true,"subId":"S112327928"},{"speciesCode":"cobtan1","comName":"Common Chlorospingus","sciName":"Chlorospingus flavopectus","locId":"L18893687","locName":"La Rapanea y El Laurel","obsDt":"2022-06-06 16:10","howMany":2,"lat":-26.8050724,"lng":-65.3189299,"obsValid":true,"obsReviewed":false,"locationPrivate":true,"subId":"S112327928"},{"speciesCode":"whbbla2","comName":"White-browed Meadowlark","sciName":"Leistes superciliaris","locId":"L19507727","locName":"52 Muñiz, Chascomús, Provincia de Buenos Aires, AR (-35.58, -58.017)","obsDt":"2022-06-06 16:07","howMany":1,"lat":-35.5795725,"lng":-58.0172602,"obsValid":true,"obsReviewed":false,"locationPrivate":true,"subId":"S112345343"},{"speciesCode":"lotmea1","comName":"Long-tailed Meadowlark","sciName":"Leistes loyca","locId":"L19502656","locName":"Ruta Provincial 215, San Juan, AR (-31.65, -68.606)","obsDt":"2022-06-06 15:56","howMany":2,"lat":-31.6502778,"lng":-68.6058314,"obsValid":true,"obsReviewed":false,"locationPrivate":true,"subId":"S112322425"},{"speciesCode":"whtpla1","comName":"White-tipped Plantcutter","sciName":"Phytotoma rutila","locId":"L19502656","locName":"Ruta Provincial 215, San Juan, AR (-31.65, -68.606)","obsDt":"2022-06-06 15:56","howMany":1,"lat":-31.6502778,"lng":-68.6058314,"obsValid":true,"obsReviewed":false,"locationPrivate":true,"subId":"S112322425"},{"speciesCode":"whtkit","comName":"White-tailed Kite","sciName":"Elanus leucurus","locId":"L6984358","locName":"Laguna Blaizot - Pozo del Molle","obsDt":"2022-06-06 15:44","howMany":2,"lat":-32.0875,"lng":-62.8669444,"obsValid":true,"obsReviewed":false,"locationPrivate":true,"subId":"S112323135"},{"speciesCode":"gryfin1","comName":"Grassland Yellow-Finch","sciName":"Sicalis luteola","locId":"L6984358","locName":"Laguna Blaizot - Pozo del Molle","obsDt":"2022-06-06 15:44","howMany":30,"lat":-32.0875,"lng":-62.8669444,"obsValid":true,"obsReviewed":false,"locationPrivate":true,"subId":"S112323135"},{"speciesCode":"bknsti","comName":"Black-necked Stilt","sciName":"Himantopus mexicanus","locId":"L6984358","locName":"Laguna Blaizot - Pozo del Molle","obsDt":"2022-06-06 15:44","howMany":5,"lat":-32.0875,"lng":-62.8669444,"obsValid":true,"obsReviewed":false,"locationPrivate":true,"subId":"S112323135"},{"speciesCode":"firgat1","comName":"Firewood-gatherer","sciName":"Anumbius annumbi","locId":"L6984358","locName":"Laguna Blaizot - Pozo del Molle","obsDt":"2022-06-06 15:44","howMany":1,"lat":-32.0875,"lng":-62.8669444,"obsValid":true,"obsReviewed":false,"locationPrivate":true,"subId":"S112323135"},{"speciesCode":"chcbla2","comName":"Chestnut-capped Blackbird","sciName":"Chrysomus ruficapillus","locId":"L6984358","locName":"Laguna Blaizot - Pozo del Molle","obsDt":"2022-06-06 15:44","howMany":8,"lat":-32.0875,"lng":-62.8669444,"obsValid":true,"obsReviewed":false,"locationPrivate":true,"subId":"S112323135"},{"speciesCode":"siltea1","comName":"Silver Teal","sciName":"Spatula versicolor","locId":"L6984358","locName":"Laguna Blaizot - Pozo del Molle","obsDt":"2022-06-06 15:44","howMany":2,"lat":-32.0875,"lng":-62.8669444,"obsValid":true,"obsReviewed":false,"locationPrivate":true,"subId":"S112323135"},{"speciesCode":"grpfin1","comName":"Great Pampa-Finch","sciName":"Embernagra platensis","locId":"L6984358","locName":"Laguna Blaizot - Pozo del Molle","obsDt":"2022-06-06 15:44","howMany":2,"lat":-32.0875,"lng":-62.8669444,"obsValid":true,"obsReviewed":false,"locationPrivate":true,"subId":"S112323135"},{"speciesCode":"snakit","comName":"Snail Kite","sciName":"Rostrhamus sociabilis","locId":"L12552521","locName":"Desembocadura arroyo amboy","obsDt":"2022-06-06 15:30","howMany":3,"lat":-32.2092546,"lng":-64.5228722,"obsValid":true,"obsReviewed":false,"locationPrivate":true,"subId":"S112386684"},{"speciesCode":"fuwduc","comName":"Fulvous Whistling-Duck","sciName":"Dendrocygna bicolor","locId":"L12552521","locName":"Desembocadura arroyo amboy","obsDt":"2022-06-06 15:30","howMany":5,"lat":-32.2092546,"lng":-64.5228722,"obsValid":true,"obsReviewed":false,"locationPrivate":true,"subId":"S112386684"},{"speciesCode":"rintea1","comName":"Ringed Teal","sciName":"Callonetta leucophrys","locId":"L12552521","locName":"Desembocadura arroyo amboy","obsDt":"2022-06-06 15:30","howMany":4,"lat":-32.2092546,"lng":-64.5228722,"obsValid":true,"obsReviewed":false,"locationPrivate":true,"subId":"S112386684"},{"speciesCode":"redsho1","comName":"Red Shoveler","sciName":"Spatula platalea","locId":"L12552521","locName":"Desembocadura arroyo amboy","obsDt":"2022-06-06 15:30","howMany":9,"lat":-32.2092546,"lng":-64.5228722,"obsValid":true,"obsReviewed":false,"locationPrivate":true,"subId":"S112386684"},{"speciesCode":"scbwoo4","comName":"Scimitar-billed Woodcreeper","sciName":"Drymornis bridgesii","locId":"L12552521","locName":"Desembocadura arroyo amboy","obsDt":"2022-06-06 15:30","howMany":3,"lat":-32.2092546,"lng":-64.5228722,"obsValid":true,"obsReviewed":false,"locationPrivate":true,"subId":"S112386684"},{"speciesCode":"soapas1","comName":"South American Painted-Snipe","sciName":"Nycticryphes semicollaris","locId":"L6984358","locName":"Laguna Blaizot - Pozo del Molle","obsDt":"2022-06-06 14:43","howMany":2,"lat":-32.0875,"lng":-62.8669444,"obsValid":true,"obsReviewed":false,"locationPrivate":true,"subId":"S112318363"},{"speciesCode":"ausneg1","comName":"Austral Negrito","sciName":"Lessonia rufa","locId":"L6984358","locName":"Laguna Blaizot - Pozo del Molle","obsDt":"2022-06-06 14:43","howMany":30,"lat":-32.0875,"lng":-62.8669444,"obsValid":true,"obsReviewed":true,"locationPrivate":true,"subId":"S112318363"},{"speciesCode":"whiher1","comName":"Whistling Heron","sciName":"Syrigma sibilatrix","locId":"L6984358","locName":"Laguna Blaizot - Pozo del Molle","obsDt":"2022-06-06 14:43","howMany":1,"lat":-32.0875,"lng":-62.8669444,"obsValid":true,"obsReviewed":false,"locationPrivate":true,"subId":"S112318363"},{"speciesCode":"whepar2","comName":"White-eyed Parakeet","sciName":"Psittacara leucophthalmus","locId":"L13642344","locName":"Gral Paz, Belén de Escobar, Provincia de Buenos Aires, AR (-34.326, -58.8)","obsDt":"2022-06-06 14:34","howMany":8,"lat":-34.3261536,"lng":-58.7995688,"obsValid":true,"obsReviewed":false,"locationPrivate":true,"subId":"S112315089"},{"speciesCode":"tutspi1","comName":"Tufted Tit-Spinetail","sciName":"Leptasthenura platensis","locId":"L12390545","locName":"Jardin Casa (Septiembre 2020/...)","obsDt":"2022-06-06 14:02","howMany":1,"lat":-33.1379949,"lng":-64.3532824,"obsValid":true,"obsReviewed":false,"locationPrivate":true,"subId":"S112312302"},{"speciesCode":"soasni2","comName":"Paraguayan Snipe","sciName":"Gallinago paraguaiae","locId":"L12497309","locName":"Colonia Porvenir","obsDt":"2022-06-06 14:00","howMany":1,"lat":-29.1899753,"lng":-59.1647475,"obsValid":true,"obsReviewed":false,"locationPrivate":false,"subId":"S112318802"},{"speciesCode":"littho1","comName":"Little Thornbird","sciName":"Phacellodomus sibilatrix","locId":"L12497309","locName":"Colonia Porvenir","obsDt":"2022-06-06 14:00","howMany":4,"lat":-29.1899753,"lng":-59.1647475,"obsValid":true,"obsReviewed":false,"locationPrivate":false,"subId":"S112318802"},{"speciesCode":"verfly","comName":"Vermilion Flycatcher","sciName":"Pyrocephalus rubinus","locId":"L12497309","locName":"Colonia Porvenir","obsDt":"2022-06-06 14:00","howMany":1,"lat":-29.1899753,"lng":-59.1647475,"obsValid":true,"obsReviewed":false,"locationPrivate":false,"subId":"S112318802"},{"speciesCode":"yebtyr2","comName":"Yellow-browed Tyrant","sciName":"Satrapa icterophrys","locId":"L12497309","locName":"Colonia Porvenir","obsDt":"2022-06-06 14:00","howMany":1,"lat":-29.1899753,"lng":-59.1647475,"obsValid":true,"obsReviewed":false,"locationPrivate":false,"subId":"S112318802"},{"speciesCode":"scrcow1","comName":"Screaming Cowbird","sciName":"Molothrus rufoaxillaris","locId":"L10677587","locName":"17 San Ignacio, Longchamps, Buenos Aires, AR (-34,848, -58,382)","obsDt":"2022-06-06 13:49","howMany":1,"lat":-34.848488,"lng":-58.3822935,"obsValid":true,"obsReviewed":false,"locationPrivate":true,"subId":"S112313507"},{"speciesCode":"grnkin","comName":"Green Kingfisher","sciName":"Chloroceryle americana","locId":"L5535532","locName":"Dique Malpaso - Saldan","obsDt":"2022-06-06 13:40","howMany":2,"lat":-31.3222927,"lng":-64.3316728,"obsValid":true,"obsReviewed":false,"locationPrivate":true,"subId":"S112333774"},{"speciesCode":"blnswa2","comName":"Black-necked Swan","sciName":"Cygnus melancoryphus","locId":"L2763212","locName":"Reserva Integral Laguna de los Padres","obsDt":"2022-06-06 12:58","howMany":3,"lat":-37.9393333,"lng":-57.7371667,"obsValid":true,"obsReviewed":false,"locationPrivate":false,"subId":"S112328762"},{"speciesCode":"barwaf1","comName":"Black-and-rufous Warbling Finch","sciName":"Poospiza nigrorufa","locId":"L2763212","locName":"Reserva Integral Laguna de los Padres","obsDt":"2022-06-06 12:58","howMany":1,"lat":-37.9393333,"lng":-57.7371667,"obsValid":true,"obsReviewed":false,"locationPrivate":false,"subId":"S112328762"},{"speciesCode":"lakduc1","comName":"Lake Duck","sciName":"Oxyura vittata","locId":"L2763212","locName":"Reserva Integral Laguna de los Padres","obsDt":"2022-06-06 12:58","howMany":1,"lat":-37.9393333,"lng":-57.7371667,"obsValid":true,"obsReviewed":false,"locationPrivate":false,"subId":"S112328762"},{"speciesCode":"eurgol","comName":"European Goldfinch","sciName":"Carduelis carduelis","locId":"L2763212","locName":"Reserva Integral Laguna de los Padres","obsDt":"2022-06-06 12:58","howMany":5,"lat":-37.9393333,"lng":-57.7371667,"obsValid":true,"obsReviewed":false,"locationPrivate":false,"subId":"S112328762"},{"speciesCode":"whthum2","comName":"White-throated Hummingbird","sciName":"Leucochloris albicollis","locId":"L2763212","locName":"Reserva Integral Laguna de los Padres","obsDt":"2022-06-06 12:58","howMany":18,"lat":-37.9393333,"lng":-57.7371667,"obsValid":true,"obsReviewed":false,"locationPrivate":false,"subId":"S112328762"},{"speciesCode":"tucpar1","comName":"Tucuman Parrot","sciName":"Amazona tucumana","locId":"L11254507","locName":"567 9 de Julio, La Merced, Salta, AR (-24.962, -65.487)","obsDt":"2022-06-06 12:30","howMany":9,"lat":-24.9619142,"lng":-65.4868123,"obsValid":true,"obsReviewed":false,"locationPrivate":true,"subId":"S112326044"},{"speciesCode":"greyel","comName":"Greater Yellowlegs","sciName":"Tringa melanoleuca","locId":"L9518132","locName":"Alteo Laguna La Picasa","obsDt":"2022-06-06 11:45","howMany":2,"lat":-34.3733587,"lng":-62.3628314,"obsValid":true,"obsReviewed":false,"locationPrivate":false,"subId":"S112319304"},{"speciesCode":"sponot1","comName":"Spotted Nothura","sciName":"Nothura maculosa","locId":"L9518132","locName":"Alteo Laguna La Picasa","obsDt":"2022-06-06 11:45","howMany":1,"lat":-34.3733587,"lng":-62.3628314,"obsValid":true,"obsReviewed":false,"locationPrivate":false,"subId":"S112319304"},{"speciesCode":"yelpip2","comName":"Yellowish Pipit","sciName":"Anthus lutescens","locId":"L9518132","locName":"Alteo Laguna La Picasa","obsDt":"2022-06-06 11:45","howMany":1,"lat":-34.3733587,"lng":-62.3628314,"obsValid":true,"obsReviewed":false,"locationPrivate":false,"subId":"S112319304"},{"speciesCode":"leasee1","comName":"Least Seedsnipe","sciName":"Thinocorus rumicivorus","locId":"L9518132","locName":"Alteo Laguna La Picasa","obsDt":"2022-06-06 11:45","howMany":10,"lat":-34.3733587,"lng":-62.3628314,"obsValid":true,"obsReviewed":false,"locationPrivate":false,"subId":"S112319304"},{"speciesCode":"rucdot1","comName":"Rufous-chested Dotterel","sciName":"Charadrius modestus","locId":"L9518132","locName":"Alteo Laguna La Picasa","obsDt":"2022-06-06 11:45","howMany":3,"lat":-34.3733587,"lng":-62.3628314,"obsValid":true,"obsReviewed":false,"locationPrivate":false,"subId":"S112319304"},{"speciesCode":"whcpin","comName":"White-cheeked Pintail","sciName":"Anas bahamensis","locId":"L9518132","locName":"Alteo Laguna La Picasa","obsDt":"2022-06-06 11:45","howMany":25,"lat":-34.3733587,"lng":-62.3628314,"obsValid":true,"obsReviewed":false,"locationPrivate":false,"subId":"S112319304"},{"speciesCode":"guitan1","comName":"Guira Tanager","sciName":"Hemithraupis guira","locId":"L16473219","locName":"Observatorio de Aves Daniel Pupi Somay","obsDt":"2022-06-06 10:48","howMany":1,"lat":-25.7151863,"lng":-54.4484808,"obsValid":true,"obsReviewed":false,"locationPrivate":false,"subId":"S112306648"},{"speciesCode":"bludac1","comName":"Blue Dacnis","sciName":"Dacnis cayana","locId":"L16473219","locName":"Observatorio de Aves Daniel Pupi Somay","obsDt":"2022-06-06 10:48","howMany":1,"lat":-25.7151863,"lng":-54.4484808,"obsValid":true,"obsReviewed":false,"locationPrivate":false,"subId":"S112306648"},{"speciesCode":"rucgre1","comName":"Rufous-crowned Greenlet","sciName":"Hylophilus poicilotis","locId":"L16473219","locName":"Observatorio de Aves Daniel Pupi Somay","obsDt":"2022-06-06 10:48","howMany":1,"lat":-25.7151863,"lng":-54.4484808,"obsValid":true,"obsReviewed":false,"locationPrivate":false,"subId":"S112306648"},{"speciesCode":"ruwant4","comName":"Rufous-margined Antwren","sciName":"Herpsilochmus rufimarginatus","locId":"L16473219","locName":"Observatorio de Aves Daniel Pupi Somay","obsDt":"2022-06-06 10:48","howMany":2,"lat":-25.7151863,"lng":-54.4484808,"obsValid":true,"obsReviewed":false,"locationPrivate":false,"subId":"S112306648"},{"speciesCode":"gretyr1","comName":"Greenish Tyrannulet","sciName":"Phyllomyias virescens","locId":"L16473219","locName":"Observatorio de Aves Daniel Pupi Somay","obsDt":"2022-06-06 10:48","howMany":1,"lat":-25.7151863,"lng":-54.4484808,"obsValid":true,"obsReviewed":false,"locationPrivate":false,"subId":"S112306648"},{"speciesCode":"toctou1","comName":"Toco Toucan","sciName":"Ramphastos toco","locId":"L16473219","locName":"Observatorio de Aves Daniel Pupi Somay","obsDt":"2022-06-06 10:48","howMany":3,"lat":-25.7151863,"lng":-54.4484808,"obsValid":true,"obsReviewed":false,"locationPrivate":false,"subId":"S112306648"},{"speciesCode":"spispi1","comName":"Spix's Spinetail","sciName":"Synallaxis spixi","locId":"L16473219","locName":"Observatorio de Aves Daniel Pupi Somay","obsDt":"2022-06-06 10:48","howMany":1,"lat":-25.7151863,"lng":-54.4484808,"obsValid":true,"obsReviewed":false,"locationPrivate":false,"subId":"S112306648"},{"speciesCode":"riwfin1","comName":"Ringed Warbling Finch","sciName":"Microspingus torquatus","locId":"L15275802","locName":"Costanera Sur, Santiago del Estero","obsDt":"2022-06-06 10:30","howMany":6,"lat":-27.8287096,"lng":-64.1941919,"obsValid":true,"obsReviewed":false,"locationPrivate":true,"subId":"S112351202"},{"speciesCode":"shbcan1","comName":"Short-billed Canastero","sciName":"Asthenes baeri","locId":"L15275802","locName":"Costanera Sur, Santiago del Estero","obsDt":"2022-06-06 10:30","howMany":2,"lat":-27.8287096,"lng":-64.1941919,"obsValid":true,"obsReviewed":false,"locationPrivate":true,"subId":"S112351202"},{"speciesCode":"graspa1","comName":"Grassland Sparrow","sciName":"Ammodramus humeralis","locId":"L15275802","locName":"Costanera Sur, Santiago del Estero","obsDt":"2022-06-06 10:30","howMany":3,"lat":-27.8287096,"lng":-64.1941919,"obsValid":true,"obsReviewed":false,"locationPrivate":true,"subId":"S112351202"},{"speciesCode":"comduc3","comName":"Comb Duck","sciName":"Sarkidiornis sylvicola","locId":"L15275802","locName":"Costanera Sur, Santiago del Estero","obsDt":"2022-06-06 10:30","howMany":15,"lat":-27.8287096,"lng":-64.1941919,"obsValid":true,"obsReviewed":false,"locationPrivate":true,"subId":"S112351202"},{"speciesCode":"rosspo1","comName":"Roseate Spoonbill","sciName":"Platalea ajaja","locId":"L2763078","locName":"Laguna Rosetti","obsDt":"2022-06-06 10:05","howMany":6,"lat":-34.3,"lng":-62.55,"obsValid":true,"obsReviewed":false,"locationPrivate":false,"subId":"S112317958"},{"speciesCode":"spfgal1","comName":"Spot-flanked Gallinule","sciName":"Porphyriops melanops","locId":"L2763078","locName":"Laguna Rosetti","obsDt":"2022-06-06 10:05","howMany":3,"lat":-34.3,"lng":-62.55,"obsValid":true,"obsReviewed":false,"locationPrivate":false,"subId":"S112317958"},{"speciesCode":"categr","comName":"Cattle Egret","sciName":"Bubulcus ibis","locId":"L2763078","locName":"Laguna Rosetti","obsDt":"2022-06-06 10:05","howMany":8,"lat":-34.3,"lng":-62.55,"obsValid":true,"obsReviewed":false,"locationPrivate":false,"subId":"S112317958"},{"speciesCode":"chiwig1","comName":"Chiloe Wigeon","sciName":"Mareca sibilatrix","locId":"L2763078","locName":"Laguna Rosetti","obsDt":"2022-06-06 10:05","howMany":2,"lat":-34.3,"lng":-62.55,"obsValid":true,"obsReviewed":false,"locationPrivate":false,"subId":"S112317958"},{"speciesCode":"woosto","comName":"Wood Stork","sciName":"Mycteria americana","locId":"L2763078","locName":"Laguna Rosetti","obsDt":"2022-06-06 10:05","howMany":3,"lat":-34.3,"lng":-62.55,"obsValid":true,"obsReviewed":false,"locationPrivate":false,"subId":"S112317958"},{"speciesCode":"shbcan2","comName":"Sharp-billed Canastero","sciName":"Asthenes pyrrholeuca","locId":"L2763078","locName":"Laguna Rosetti","obsDt":"2022-06-06 10:05","howMany":3,"lat":-34.3,"lng":-62.55,"obsValid":true,"obsReviewed":false,"locationPrivate":false,"subId":"S112317958"},{"speciesCode":"corpip1","comName":"Correndera Pipit","sciName":"Anthus correndera","locId":"L2763078","locName":"Laguna Rosetti","obsDt":"2022-06-06 10:05","howMany":2,"lat":-34.3,"lng":-62.55,"obsValid":true,"obsReviewed":false,"locationPrivate":false,"subId":"S112317958"},{"speciesCode":"sedwre","comName":"Grass Wren","sciName":"Cistothorus platensis","locId":"L2763078","locName":"Laguna Rosetti","obsDt":"2022-06-06 10:05","howMany":3,"lat":-34.3,"lng":-62.55,"obsValid":true,"obsReviewed":false,"locationPrivate":false,"subId":"S112317958"},{"speciesCode":"tacpyt1","comName":"Rufous-crowned Pygmy-Tyrant","sciName":"Euscarthmus meloryphus","locId":"L4811967","locName":"Tantanacuy","obsDt":"2022-06-06 09:20","howMany":1,"lat":-25.6679867,"lng":-61.5099192,"obsValid":true,"obsReviewed":false,"locationPrivate":false,"subId":"S112336970"},{"speciesCode":"lalbru1","comName":"Lark-like Brushrunner","sciName":"Coryphistera alaudina","locId":"L4811967","locName":"Tantanacuy","obsDt":"2022-06-06 09:20","howMany":10,"lat":-25.6679867,"lng":-61.5099192,"obsValid":true,"obsReviewed":false,"locationPrivate":false,"subId":"S112336970"},{"speciesCode":"spbpuf1","comName":"Spot-backed Puffbird","sciName":"Nystalus maculatus","locId":"L4811967","locName":"Tantanacuy","obsDt":"2022-06-06 09:20","howMany":1,"lat":-25.6679867,"lng":-61.5099192,"obsValid":true,"obsReviewed":false,"locationPrivate":false,"subId":"S112336970"},{"speciesCode":"crbwoo2","comName":"Cream-backed Woodpecker","sciName":"Campephilus leucopogon","locId":"L4811967","locName":"Tantanacuy","obsDt":"2022-06-06 09:20","howMany":2,"lat":-25.6679867,"lng":-61.5099192,"obsValid":true,"obsReviewed":false,"locationPrivate":false,"subId":"S112336970"},{"speciesCode":"recfin1","comName":"Red-crested Finch","sciName":"Coryphospingus cucullatus","locId":"L4811967","locName":"Tantanacuy","obsDt":"2022-06-06 09:20","howMany":2,"lat":-25.6679867,"lng":-61.5099192,"obsValid":true,"obsReviewed":false,"locationPrivate":false,"subId":"S112336970"},{"speciesCode":"stbant2","comName":"Stripe-backed Antbird","sciName":"Myrmorchilus strigilatus","locId":"L4811967","locName":"Tantanacuy","obsDt":"2022-06-06 09:20","howMany":4,"lat":-25.6679867,"lng":-61.5099192,"obsValid":true,"obsReviewed":false,"locationPrivate":false,"subId":"S112336970"},{"speciesCode":"whiwoo1","comName":"White Woodpecker","sciName":"Melanerpes candidus","locId":"L4811967","locName":"Tantanacuy","obsDt":"2022-06-06 09:20","howMany":7,"lat":-25.6679867,"lng":-61.5099192,"obsValid":true,"obsReviewed":false,"locationPrivate":false,"subId":"S112336970"},{"speciesCode":"sootyr1","comName":"Sooty Tyrannulet","sciName":"Serpophaga nigricans","locId":"L976247","locName":"Reserva Ecológica Ciudad Universitaria - Costanera Norte","obsDt":"2022-06-06 09:11","howMany":1,"lat":-34.5385203,"lng":-58.4437037,"obsValid":true,"obsReviewed":false,"locationPrivate":false,"subId":"S112291075"},{"speciesCode":"ruscra1","comName":"Rufous-sided Crake","sciName":"Laterallus melanophaius","locId":"L976247","locName":"Reserva Ecológica Ciudad Universitaria - Costanera Norte","obsDt":"2022-06-06 09:11","howMany":1,"lat":-34.5385203,"lng":-58.4437037,"obsValid":true,"obsReviewed":false,"locationPrivate":false,"subId":"S112291075"},{"speciesCode":"musduc","comName":"Muscovy Duck","sciName":"Cairina moschata","locId":"L11336450","locName":"Reserva Natural Urbana del Oeste","obsDt":"2022-06-06 08:40","howMany":2,"lat":-31.6085404,"lng":-60.724608,"obsValid":true,"obsReviewed":true,"locationPrivate":false,"subId":"S112322830"},{"speciesCode":"yebter2","comName":"Yellow-billed Tern","sciName":"Sternula superciliaris","locId":"L11336450","locName":"Reserva Natural Urbana del Oeste","obsDt":"2022-06-06 08:40","howMany":1,"lat":-31.6085404,"lng":-60.724608,"obsValid":true,"obsReviewed":true,"locationPrivate":false,"subId":"S112322830"},{"speciesCode":"mosfin1","comName":"Mourning Sierra Finch","sciName":"Rhopospina fruticeti","locId":"L14799468","locName":"Las Mesetas, Las Grutas, Río Negro, AR (-40.82, -65.103)","obsDt":"2022-06-05 18:53","howMany":50,"lat":-40.8201668,"lng":-65.103469,"obsValid":true,"obsReviewed":false,"locationPrivate":true,"subId":"S112249985"},{"speciesCode":"pmtspi1","comName":"Plain-mantled Tit-Spinetail","sciName":"Leptasthenura aegithaloides","locId":"L14799468","locName":"Las Mesetas, Las Grutas, Río Negro, AR (-40.82, -65.103)","obsDt":"2022-06-05 18:53","howMany":2,"lat":-40.8201668,"lng":-65.103469,"obsValid":true,"obsReviewed":false,"locationPrivate":true,"subId":"S112249985"},{"speciesCode":"bunibi1","comName":"Buff-necked Ibis","sciName":"Theristicus caudatus","locId":"L14708043","locName":"Finca El Molino","obsDt":"2022-06-05 17:52","howMany":2,"lat":-25.5298667,"lng":-65.5135145,"obsValid":true,"obsReviewed":false,"locationPrivate":false,"subId":"S112246321"},{"speciesCode":"blcfin1","comName":"Black-crested Finch","sciName":"Lophospingus pusillus","locId":"L14708043","locName":"Finca El Molino","obsDt":"2022-06-05 17:52","howMany":2,"lat":-25.5298667,"lng":-65.5135145,"obsValid":true,"obsReviewed":false,"locationPrivate":false,"subId":"S112246321"},{"speciesCode":"sangal1","comName":"Sandy Gallito","sciName":"Teledromas fuscus","locId":"L16266666","locName":"Ruta Provincial 7 Chosma - Añelo","obsDt":"2022-06-05 17:37","howMany":1,"lat":-37.6561172,"lng":-69.4725946,"obsValid":true,"obsReviewed":false,"locationPrivate":true,"subId":"S112334408"},{"speciesCode":"labter1","comName":"Large-billed Tern","sciName":"Phaetusa simplex","locId":"L15960693","locName":"Eva Peron Bis, Diamante, Entre Ríos, AR (-32.064, -60.651)","obsDt":"2022-06-05 17:28","howMany":1,"lat":-32.0641081,"lng":-60.6506067,"obsValid":true,"obsReviewed":false,"locationPrivate":true,"subId":"S112249412"},{"speciesCode":"wepdov1","comName":"West Peruvian Dove","sciName":"Zenaida meloda","locId":"L5870797","locName":"General Roca","obsDt":"2022-06-05 17:20","howMany":1,"lat":-39.0469192,"lng":-67.5880623,"obsValid":true,"obsReviewed":false,"locationPrivate":false,"subId":"S112246157"},{"speciesCode":"spwfal2","comName":"Spot-winged Falconet","sciName":"Spiziapteryx circumcincta","locId":"L11839480","locName":"Córdoba, AR (-31.312, -64.516)","obsDt":"2022-06-05 17:00","howMany":1,"lat":-31.3122325,"lng":-64.5160143,"obsValid":true,"obsReviewed":false,"locationPrivate":true,"subId":"S112251990"},{"speciesCode":"stcspa3","comName":"Chaco Sparrow","sciName":"Rhynchospiza strigiceps","locId":"L11839480","locName":"Córdoba, AR (-31.312, -64.516)","obsDt":"2022-06-05 17:00","howMany":9,"lat":-31.3122325,"lng":-64.5160143,"obsValid":true,"obsReviewed":false,"locationPrivate":true,"subId":"S112251990"},{"speciesCode":"rubmon1","comName":"Rusty-backed Monjita","sciName":"Neoxolmis rubetra","locId":"L19487753","locName":"Vía sin nombre, Santa Fe, AR (-31,474, -61,17)","obsDt":"2022-06-05 16:57","howMany":80,"lat":-31.4736442,"lng":-61.1701031,"obsValid":true,"obsReviewed":true,"locationPrivate":true,"subId":"S112257736"},{"speciesCode":"banana","comName":"Bananaquit","sciName":"Coereba flaveola","locId":"L2879553","locName":"Reserva Urbana Arroyo Itá","obsDt":"2022-06-05 16:30","howMany":2,"lat":-27.3593772,"lng":-55.9108883,"obsValid":true,"obsReviewed":false,"locationPrivate":false,"subId":"S112241598"},{"speciesCode":"commin1","comName":"Common Miner","sciName":"Geositta cunicularia","locId":"L19223378","locName":"-34.7916456, -59.9961354","obsDt":"2022-06-05 16:20","howMany":4,"lat":-34.7916456,"lng":-59.9961354,"obsValid":true,"obsReviewed":false,"locationPrivate":true,"subId":"S112244448"},{"speciesCode":"tatdot1","comName":"Tawny-throated Dotterel","sciName":"Oreopholus ruficollis","locId":"L19223378","locName":"-34.7916456, -59.9961354","obsDt":"2022-06-05 16:20","howMany":30,"lat":-34.7916456,"lng":-59.9961354,"obsValid":true,"obsReviewed":false,"locationPrivate":true,"subId":"S112244448"},{"speciesCode":"whltan1","comName":"White-lined Tanager","sciName":"Tachyphonus rufus","locId":"L15060857","locName":"Avenida 12 de Octubre, Corrientes, AR (-27,469, -58,66)","obsDt":"2022-06-05 16:13","howMany":2,"lat":-27.4689099,"lng":-58.660428,"obsValid":true,"obsReviewed":false,"locationPrivate":true,"subId":"S112240593"},{"speciesCode":"smbani","comName":"Smooth-billed Ani","sciName":"Crotophaga ani","locId":"L15060857","locName":"Avenida 12 de Octubre, Corrientes, AR (-27,469, -58,66)","obsDt":"2022-06-05 16:13","howMany":3,"lat":-27.4689099,"lng":-58.660428,"obsValid":true,"obsReviewed":false,"locationPrivate":true,"subId":"S112240593"},{"speciesCode":"rewtin1","comName":"Red-winged Tinamou","sciName":"Rhynchotus rufescens","locId":"L15060857","locName":"Avenida 12 de Octubre, Corrientes, AR (-27,469, -58,66)","obsDt":"2022-06-05 16:13","howMany":1,"lat":-27.4689099,"lng":-58.660428,"obsValid":true,"obsReviewed":false,"locationPrivate":true,"subId":"S112240593"},{"speciesCode":"nacnig1","comName":"Nacunda Nighthawk","sciName":"Chordeiles nacunda","locId":"L15060857","locName":"Avenida 12 de Octubre, Corrientes, AR (-27,469, -58,66)","obsDt":"2022-06-05 16:13","howMany":16,"lat":-27.4689099,"lng":-58.660428,"obsValid":true,"obsReviewed":false,"locationPrivate":true,"subId":"S112240593"},{"speciesCode":"amakin1","comName":"Amazon Kingfisher","sciName":"Chloroceryle amazona","locId":"L10400025","locName":"Unzueta, Villa Nueva, Córdoba, AR (-32,445, -63,214)","obsDt":"2022-06-05 16:05","howMany":1,"lat":-32.4447718,"lng":-63.2144499,"obsValid":true,"obsReviewed":false,"locationPrivate":true,"subId":"S112275712"},{"speciesCode":"baymar1","comName":"Brown-and-yellow Marshbird","sciName":"Pseudoleistes virescens","locId":"L19487715","locName":"Vía sin nombre, Santa Fe, AR (-31,464, -61,168)","obsDt":"2022-06-05 15:57","howMany":2,"lat":-31.4638381,"lng":-61.16787,"obsValid":true,"obsReviewed":true,"locationPrivate":true,"subId":"S112257582"},{"speciesCode":"chospi2","comName":"Chotoy Spinetail","sciName":"Schoeniophylax phryganophilus","locId":"L19487715","locName":"Vía sin nombre, Santa Fe, AR (-31,464, -61,168)","obsDt":"2022-06-05 15:57","howMany":2,"lat":-31.4638381,"lng":-61.16787,"obsValid":true,"obsReviewed":true,"locationPrivate":true,"subId":"S112257582"},{"speciesCode":"savhaw1","comName":"Savanna Hawk","sciName":"Buteogallus meridionalis","locId":"L19487715","locName":"Vía sin nombre, Santa Fe, AR (-31,464, -61,168)","obsDt":"2022-06-05 15:57","howMany":1,"lat":-31.4638381,"lng":-61.16787,"obsValid":true,"obsReviewed":true,"locationPrivate":true,"subId":"S112257582"},{"speciesCode":"codfin1","comName":"Diuca Finch","sciName":"Diuca diuca","locId":"L19499913","locName":"Vía sin nombre, Provincia de Buenos Aires, AR (-38,814, -62,951)","obsDt":"2022-06-05 15:50","howMany":20,"lat":-38.8140588,"lng":-62.9512971,"obsValid":true,"obsReviewed":false,"locationPrivate":true,"subId":"S112310417"},{"speciesCode":"wtgfin1","comName":"Wedge-tailed Grass-Finch","sciName":"Emberizoides herbicola","locId":"L9162969","locName":"Reserva Urutaú por Costanera","obsDt":"2022-06-05 15:15","howMany":2,"lat":-27.4932608,"lng":-55.7733877,"obsValid":true,"obsReviewed":false,"locationPrivate":true,"subId":"S112248776"},{"speciesCode":"chobla1","comName":"Chopi Blackbird","sciName":"Gnorimopsar chopi","locId":"L9162969","locName":"Reserva Urutaú por Costanera","obsDt":"2022-06-05 15:15","lat":-27.4932608,"lng":-55.7733877,"obsValid":true,"obsReviewed":false,"locationPrivate":true,"subId":"S112248776"},{"speciesCode":"rucspi1","comName":"Rufous-capped Spinetail","sciName":"Synallaxis ruficapilla","locId":"L9162969","locName":"Reserva Urutaú por Costanera","obsDt":"2022-06-05 15:15","howMany":2,"lat":-27.4932608,"lng":-55.7733877,"obsValid":true,"obsReviewed":false,"locationPrivate":true,"subId":"S112248776"},{"speciesCode":"rugdov","comName":"Ruddy Ground Dove","sciName":"Columbina talpacoti","locId":"L9162969","locName":"Reserva Urutaú por Costanera","obsDt":"2022-06-05 15:15","howMany":5,"lat":-27.4932608,"lng":-55.7733877,"obsValid":true,"obsReviewed":false,"locationPrivate":true,"subId":"S112248776"},{"speciesCode":"yermar1","comName":"Yellow-rumped Marshbird","sciName":"Pseudoleistes guirahuro","locId":"L9162969","locName":"Reserva Urutaú por Costanera","obsDt":"2022-06-05 15:15","lat":-27.4932608,"lng":-55.7733877,"obsValid":true,"obsReviewed":false,"locationPrivate":true,"subId":"S112248776"},{"speciesCode":"shttyr1","comName":"Sharp-tailed Tyrant","sciName":"Culicivora caudacuta","locId":"L9162969","locName":"Reserva Urutaú por Costanera","obsDt":"2022-06-05 15:15","howMany":2,"lat":-27.4932608,"lng":-55.7733877,"obsValid":true,"obsReviewed":false,"locationPrivate":true,"subId":"S112248776"},{"speciesCode":"strher","comName":"Striated Heron","sciName":"Butorides striata","locId":"L9162969","locName":"Reserva Urutaú por Costanera","obsDt":"2022-06-05 15:15","howMany":1,"lat":-27.4932608,"lng":-55.7733877,"obsValid":true,"obsReviewed":false,"locationPrivate":true,"subId":"S112248776"},{"speciesCode":"lyhvul1","comName":"Lesser Yellow-headed Vulture","sciName":"Cathartes burrovianus","locId":"L9162969","locName":"Reserva Urutaú por Costanera","obsDt":"2022-06-05 15:15","howMany":3,"lat":-27.4932608,"lng":-55.7733877,"obsValid":true,"obsReviewed":false,"locationPrivate":true,"subId":"S112248776"},{"speciesCode":"stttyr2","comName":"Streamer-tailed Tyrant","sciName":"Gubernetes yetapa","locId":"L9162969","locName":"Reserva Urutaú por Costanera","obsDt":"2022-06-05 15:15","howMany":2,"lat":-27.4932608,"lng":-55.7733877,"obsValid":true,"obsReviewed":false,"locationPrivate":true,"subId":"S112248776"},{"speciesCode":"burpar","comName":"Burrowing Parakeet","sciName":"Cyanoliseus patagonus","locId":"L9616544","locName":"2077 Reencuentro, Catriel, Río Negro, AR (-37,864, -67,782)","obsDt":"2022-06-05 15:07","howMany":50,"lat":-37.8642716,"lng":-67.7817844,"obsValid":true,"obsReviewed":false,"locationPrivate":true,"subId":"S112250153"},{"speciesCode":"cregal1","comName":"Crested Gallito","sciName":"Rhinocrypta lanceolata","locId":"L9616544","locName":"2077 Reencuentro, Catriel, Río Negro, AR (-37,864, -67,782)","obsDt":"2022-06-05 15:07","howMany":2,"lat":-37.8642716,"lng":-67.7817844,"obsValid":true,"obsReviewed":false,"locationPrivate":true,"subId":"S112250153"},{"speciesCode":"cinhar1","comName":"Cinereous Harrier","sciName":"Circus cinereus","locId":"L19490158","locName":"22 Neuquén, Chascomús, Provincia de Buenos Aires, AR (-35.559, -58.012)","obsDt":"2022-06-05 15:01","howMany":3,"lat":-35.559335,"lng":-58.0124487,"obsValid":true,"obsReviewed":false,"locationPrivate":true,"subId":"S112266730"},{"speciesCode":"shcfly1","comName":"Short-crested Flycatcher","sciName":"Myiarchus ferox","locId":"L472205","locName":"PN Iguazú--Área Cataratas (AICA MI01)","obsDt":"2022-06-05 14:54","howMany":2,"lat":-25.6833032,"lng":-54.455452,"obsValid":true,"obsReviewed":false,"locationPrivate":false,"subId":"S112283369"},{"speciesCode":"bbfgle1","comName":"Buff-browed Foliage-gleaner","sciName":"Syndactyla rufosuperciliata","locId":"L472205","locName":"PN Iguazú--Área Cataratas (AICA MI01)","obsDt":"2022-06-05 14:54","howMany":2,"lat":-25.6833032,"lng":-54.455452,"obsValid":true,"obsReviewed":false,"locationPrivate":false,"subId":"S112283369"},{"speciesCode":"bkcdon","comName":"Black-capped Donacobius","sciName":"Donacobius atricapilla","locId":"L472205","locName":"PN Iguazú--Área Cataratas (AICA MI01)","obsDt":"2022-06-05 14:54","howMany":2,"lat":-25.6833032,"lng":-54.455452,"obsValid":true,"obsReviewed":false,"locationPrivate":false,"subId":"S112283369"},{"speciesCode":"blgtan1","comName":"Black-goggled Tanager","sciName":"Trichothraupis melanops","locId":"L472205","locName":"PN Iguazú--Área Cataratas (AICA MI01)","obsDt":"2022-06-05 14:54","howMany":2,"lat":-25.6833032,"lng":-54.455452,"obsValid":true,"obsReviewed":false,"locationPrivate":false,"subId":"S112283369"},{"speciesCode":"chbeup1","comName":"Chestnut-bellied Euphonia","sciName":"Euphonia pectoralis","locId":"L472205","locName":"PN Iguazú--Área Cataratas (AICA MI01)","obsDt":"2022-06-05 14:54","howMany":2,"lat":-25.6833032,"lng":-54.455452,"obsValid":true,"obsReviewed":false,"locationPrivate":false,"subId":"S112283369"},{"speciesCode":"cheara1","comName":"Chestnut-eared Aracari","sciName":"Pteroglossus castanotis","locId":"L472205","locName":"PN Iguazú--Área Cataratas (AICA MI01)","obsDt":"2022-06-05 14:54","howMany":4,"lat":-25.6833032,"lng":-54.455452,"obsValid":true,"obsReviewed":false,"locationPrivate":false,"subId":"S112283369"},{"speciesCode":"eaptyr1","comName":"Eared Pygmy-Tyrant","sciName":"Myiornis auricularis","locId":"L472205","locName":"PN Iguazú--Área Cataratas (AICA MI01)","obsDt":"2022-06-05 14:54","howMany":1,"lat":-25.6833032,"lng":-54.455452,"obsValid":true,"obsReviewed":false,"locationPrivate":false,"subId":"S112283369"},{"speciesCode":"grhtan2","comName":"Green-headed Tanager","sciName":"Tangara seledon","locId":"L472205","locName":"PN Iguazú--Área Cataratas (AICA MI01)","obsDt":"2022-06-05 14:54","howMany":4,"lat":-25.6833032,"lng":-54.455452,"obsValid":true,"obsReviewed":false,"locationPrivate":false,"subId":"S112283369"},{"speciesCode":"obfgle2","comName":"Ochre-breasted Foliage-gleaner","sciName":"Anabacerthia lichtensteini","locId":"L472205","locName":"PN Iguazú--Área Cataratas (AICA MI01)","obsDt":"2022-06-05 14:54","howMany":2,"lat":-25.6833032,"lng":-54.455452,"obsValid":true,"obsReviewed":false,"locationPrivate":false,"subId":"S112283369"},{"speciesCode":"pabthr1","comName":"Pale-breasted Thrush","sciName":"Turdus leucomelas","locId":"L472205","locName":"PN Iguazú--Área Cataratas (AICA MI01)","obsDt":"2022-06-05 14:54","howMany":4,"lat":-25.6833032,"lng":-54.455452,"obsValid":true,"obsReviewed":false,"locationPrivate":false,"subId":"S112283369"},{"speciesCode":"plwwoo1","comName":"Plain-winged Woodcreeper","sciName":"Dendrocincla turdina","locId":"L472205","locName":"PN Iguazú--Área Cataratas (AICA MI01)","obsDt":"2022-06-05 14:54","howMany":3,"lat":-25.6833032,"lng":-54.455452,"obsValid":true,"obsReviewed":false,"locationPrivate":false,"subId":"S112283369"},{"speciesCode":"roltyr1","comName":"Rough-legged Tyrannulet","sciName":"Phyllomyias burmeisteri","locId":"L472205","locName":"PN Iguazú--Área Cataratas (AICA MI01)","obsDt":"2022-06-05 14:54","howMany":1,"lat":-25.6833032,"lng":-54.455452,"obsValid":true,"obsReviewed":false,"locationPrivate":false,"subId":"S112283369"},{"speciesCode":"ructan1","comName":"Ruby-crowned Tanager","sciName":"Tachyphonus coronatus","locId":"L472205","locName":"PN Iguazú--Área Cataratas (AICA MI01)","obsDt":"2022-06-05 14:54","howMany":4,"lat":-25.6833032,"lng":-54.455452,"obsValid":true,"obsReviewed":false,"locationPrivate":false,"subId":"S112283369"},{"speciesCode":"secfly1","comName":"Sepia-capped Flycatcher","sciName":"Leptopogon amaurocephalus","locId":"L472205","locName":"PN Iguazú--Área Cataratas (AICA MI01)","obsDt":"2022-06-05 14:54","howMany":1,"lat":-25.6833032,"lng":-54.455452,"obsValid":true,"obsReviewed":false,"locationPrivate":false,"subId":"S112283369"},{"speciesCode":"sibsir1","comName":"Sibilant Sirystes","sciName":"Sirystes sibilator","locId":"L472205","locName":"PN Iguazú--Área Cataratas (AICA MI01)","obsDt":"2022-06-05 14:54","howMany":2,"lat":-25.6833032,"lng":-54.455452,"obsValid":true,"obsReviewed":false,"locationPrivate":false,"subId":"S112283369"},{"speciesCode":"thlwre1","comName":"Thrush-like Wren","sciName":"Campylorhynchus turdinus","locId":"L472205","locName":"PN Iguazú--Área Cataratas (AICA MI01)","obsDt":"2022-06-05 14:54","howMany":2,"lat":-25.6833032,"lng":-54.455452,"obsValid":true,"obsReviewed":false,"locationPrivate":false,"subId":"S112283369"},{"speciesCode":"soater1","comName":"South American Tern","sciName":"Sterna hirundinacea","locId":"L7954561","locName":"costa entre Costa Bonita y fca de sal","obsDt":"2022-06-05 14:51","howMany":25,"lat":-38.5597149,"lng":-58.6090833,"obsValid":true,"obsReviewed":false,"locationPrivate":true,"subId":"S112244941"},{"speciesCode":"twbplo1","comName":"Two-banded Plover","sciName":"Charadrius falklandicus","locId":"L7954561","locName":"costa entre Costa Bonita y fca de sal","obsDt":"2022-06-05 14:51","howMany":2,"lat":-38.5597149,"lng":-58.6090833,"obsValid":true,"obsReviewed":false,"locationPrivate":true,"subId":"S112244941"},{"speciesCode":"truter","comName":"Snowy-crowned Tern","sciName":"Sterna trudeaui","locId":"L7954561","locName":"costa entre Costa Bonita y fca de sal","obsDt":"2022-06-05 14:51","howMany":10,"lat":-38.5597149,"lng":-58.6090833,"obsValid":true,"obsReviewed":false,"locationPrivate":true,"subId":"S112244941"},{"speciesCode":"lesyel","comName":"Lesser Yellowlegs","sciName":"Tringa flavipes","locId":"L7954561","locName":"costa entre Costa Bonita y fca de sal","obsDt":"2022-06-05 14:51","howMany":3,"lat":-38.5597149,"lng":-58.6090833,"obsValid":true,"obsReviewed":false,"locationPrivate":true,"subId":"S112244941"},{"speciesCode":"whrsan","comName":"White-rumped Sandpiper","sciName":"Calidris fuscicollis","locId":"L7954561","locName":"costa entre Costa Bonita y fca de sal","obsDt":"2022-06-05 14:51","howMany":1,"lat":-38.5597149,"lng":-58.6090833,"obsValid":true,"obsReviewed":false,"locationPrivate":true,"subId":"S112244941"},{"speciesCode":"sander","comName":"Sanderling","sciName":"Calidris alba","locId":"L7954561","locName":"costa entre Costa Bonita y fca de sal","obsDt":"2022-06-05 14:51","howMany":19,"lat":-38.5597149,"lng":-58.6090833,"obsValid":true,"obsReviewed":false,"locationPrivate":true,"subId":"S112244941"},{"speciesCode":"olrgul1","comName":"Olrog's Gull","sciName":"Larus atlanticus","locId":"L7954561","locName":"costa entre Costa Bonita y fca de sal","obsDt":"2022-06-05 14:51","howMany":4,"lat":-38.5597149,"lng":-58.6090833,"obsValid":true,"obsReviewed":false,"locationPrivate":true,"subId":"S112244941"},{"speciesCode":"ameoys","comName":"American Oystercatcher","sciName":"Haematopus palliatus","locId":"L7954561","locName":"costa entre Costa Bonita y fca de sal","obsDt":"2022-06-05 14:51","howMany":11,"lat":-38.5597149,"lng":-58.6090833,"obsValid":true,"obsReviewed":false,"locationPrivate":true,"subId":"S112244941"},{"speciesCode":"mcrtyr1","comName":"Many-colored Rush Tyrant","sciName":"Tachuris rubrigastra","locId":"L4049170","locName":"San Martín de los Andes--Reserva Natural Urbana Cotesma","obsDt":"2022-06-05 14:38","howMany":1,"lat":-40.1289568,"lng":-71.2776339,"obsValid":true,"obsReviewed":false,"locationPrivate":false,"subId":"S112244070"},